kakao_id,name,category,region,phone,url,lat,lng,raw_category,style,district,price_min,price_max,description,rating,review_count
1426961148,클레스튜디오,studio,서울 강남구 논현동 57-6,02-514-3530,http://place.map.kakao.com/1426961148,37.5137008805794,127.027473358377,"가정,생활 > 결혼 > 웨딩스튜디오","{""모던"",""클래식"",""럭셔리""}",강남구,100,300,고급스러운 웨딩 촬영을 제공하는 스튜디오,,0
1364569871,소르아웨딩,studio,서울 강남구 청담동 40-9,010-3974-8978,http://place.map.kakao.com/1364569871,37.51919656334894,127.04135049829466,"가정,생활 > 결혼 > 웨딩스튜디오","{""모던"",""럭셔리"",""로맨틱""}",강남구,100,300,소르아웨딩은 현대적이면서 고급스러운 웨딩 스타일을 제공하는 스튜디오입니다.,,0
1662835744,버드투 블룸스튜디오 1호점,studio,서울 강남구 청담동 9,02-547-7003,http://place.map.kakao.com/1662835744,37.5221953350124,127.04788614374,"가정,생활 > 결혼 > 웨딩스튜디오","{""모던"",""럭셔리"",""로맨틱""}",강남구,100,300,세련된 분위기와 고급스러운 웨딩 촬영을 제공하는 스튜디오,,0
1500860601,메종드힐,studio,서울 강남구 역삼동 614,02-568-0822,http://place.map.kakao.com/1500860601,37.5040390852705,127.028822442273,"가정,생활 > 결혼 > 웨딩스튜디오","{""모던"",""럭셔리""}",강남구,100,300,현대적인 감각과 럭셔리한 분위기의 웨딩스튜디오,,0
14613533,21그램,studio,서울 강남구 논현동 34-12,02-794-2470,http://place.map.kakao.com/14613533,37.51635397480709,127.02898780018924,"가정,생활 > 결혼 > 웨딩스튜디오","{""모던"",""클래식"",""로맨틱""}",강남구,100,300,21그램은 모던하고 클래식한 웨딩 사진과 로맨틱한 촬영을 제공합니다.,,0
1847910964,메리드스튜디오,studio,서울 강남구 논현동 86-15,02-548-7774,http://place.map.kakao.com/1847910964,37.5154738854383,127.031748547201,"가정,생활 > 결혼 > 웨딩스튜디오","{""모던"",""내추럴"",""럭셔리""}",강남구,100,300,세련되고 현대적인 웨딩 촬영 스타일을 제공하는 스튜디오,,0
26824739,비포원스튜디오,studio,서울 강남구 논현동 251,02-541-9030,http://place.map.kakao.com/26824739,37.5139366837326,127.038140909487,"가정,생활 > 결혼 > 웨딩스튜디오","{""모던"",""럭셔리"",""클래식""}",강남구,100,300,비포원스튜디오는 고급스러운 웨딩 촬영을 제공하는 스튜디오입니다.,,0
1167510345,아이브스튜디오,studio,서울 강남구 논현동 265-10,02-512-2994,http://place.map.kakao.com/1167510345,37.5125968759934,127.04087858733153,"가정,생활 > 결혼 > 웨딩스튜디오","{""모던"",""로맨틱""}",강남구,100,300,아이브스튜디오는 고급스러운 웨딩 촬영을 전문으로 하는 스튜디오입니다.,,0
57461162,클레브스튜디오,studio,서울 강남구 역삼동 830-57,070-4843-0024,http://place.map.kakao.com/57461162,37.49465145395142,127.03247928408722,"가정,생활 > 결혼 > 웨딩스튜디오","{""모던"",""클래식"",""로맨틱""}",강남구,100,300,클레브스튜디오는 모던하고 클래식한 웨딩 촬영을 전문으로 하는 스튜디오입니다.,,0
643554117,스튜디오 클로드 논현점,studio,서울 강남구 논현동 255-20,02-512-1443,http://place.map.kakao.com/643554117,37.51321879622534,127.04021610453046,"가정,생활 > 결혼 > 웨딩스튜디오","{""모던"",""클래식"",""럭셔리""}",강남구,100,300,스튜디오 클로드 논현점은 세련된 모던한 스타일과 클래식한 아름다움을 동시에 제공합니다.,,0
1135754212,라앤디스튜디오,studio,서울 강남구 역삼동 614-3,070-4803-8912,http://place.map.kakao.com/1135754212,37.50397321742243,127.02920694202676,"가정,생활 > 결혼 > 웨딩스튜디오","{""모던"",""내추럴"",""클래식"",""럭셔리""}",강남구,100,300,라앤디스튜디오는 다양한 스타일의 웨딩 촬영을 전문으로 하는 스튜디오입니다.,,0
1041812329,스투디오사이,studio,서울 강남구 삼성동 85-17,02-2138-3442,http://place.map.kakao.com/1041812329,37.518066421161,127.060766385144,"가정,생활 > 결혼 > 웨딩스튜디오","{""모던"",""내추럴"",""클래식""}",강남구,100,300,스투디오사는 다양한 스타일의 웨딩 촬영을 제공하는 현대적인 웨딩 스튜디오입니다.,,0
756016643,로라스튜디오,studio,서울 강남구 논현동 249-13,02-518-0960,http://place.map.kakao.com/756016643,37.5121153813836,127.036469379103,"가정,생활 > 결혼 > 웨딩스튜디오","{""모던"",""로맨틱""}",강남구,100,300,로라스튜디오는 현대적이고 감성적인 웨딩 촬영을 전문으로 하는 스튜디오입니다.,,0
7870212,메이스튜디오,studio,서울 강남구 신사동 646-2,,http://place.map.kakao.com/7870212,37.5256684299326,127.035952191457,"가정,생활 > 결혼 > 웨딩스튜디오","{""모던"",""내추럴"",""클래식""}",강남구,100,300,모던하고 내추럴한 느낌의 웨딩 촬영을 전문으로 하는 스튜디오.,,0
27136954,브라이드메이,studio,서울 강남구 청담동 11-23,02-3445-0054,http://place.map.kakao.com/27136954,37.521813626114955,127.04709969822304,"가정,생활 > 결혼 > 웨딩스튜디오","{""모던"",""럭셔리""}",강남구,100,300,고급스러운 분위기의 웨딩스튜디오,,0
171595297,스튜디오네쥬,studio,서울 강남구 논현동 29-9,02-516-8885,http://place.map.kakao.com/171595297,37.5158082064806,127.027993321701,"가정,생활 > 결혼 > 웨딩스튜디오","{""모던"",""로맨틱""}",강남구,100,300,스튜디오네쥬는 세련된 모던함과 로맨틱한 스타일을 지닌 웨딩 스튜디오입니다.,,0
7914384,사계절스튜디오,studio,서울 강남구 논현동 159-3,02-543-2731,http://place.map.kakao.com/7914384,37.50953769984504,127.02587819703027,"가정,생활 > 결혼 > 웨딩스튜디오","{""모던"",""내추럴"",""로맨틱""}",강남구,100,300,사계절스튜디오는 다양한 스타일을 제공하는 웨딩 전문 스튜디오입니다.,,0
932510662,바시움스튜디오,studio,서울 강남구 논현동 268-6,02-6204-7070,http://place.map.kakao.com/932510662,37.5118952861453,127.04260083281,"가정,생활 > 결혼 > 웨딩스튜디오","{""모던"",""내추럴"",""클래식"",""럭셔리""}",강남구,100,300,세련된 감각과 고급스러운 분위기를 갖춘 웨딩스튜디오,,0
1556809599,세미앙스튜디오,studio,서울 강남구 논현동 125-9,070-4249-9486,http://place.map.kakao.com/1556809599,37.51218915144,127.026795287296,"가정,생활 > 결혼 > 웨딩스튜디오","{""모던"",""로맨틱""}",강남구,100,300,세미앙스튜디오는 다양한 스타일을 제공하는 고급 웨딩 스튜디오입니다.,,0
569747380,어뮤즈하우스,studio,서울 강남구 역삼동 721-31,,http://place.map.kakao.com/569747380,37.499468367712,127.043301707958,"가정,생활 > 결혼 > 웨딩스튜디오","{""모던"",""내추럴"",""클래식""}",강남구,100,300,어뮤즈하우스는 현대적이고 자연스러운 웨딩 촬영 스타일을 지향하는 웨딩스튜디오입니다.,,0
1393835722,피아스튜디오,studio,서울 강남구 논현동 125-9,070-4944-1235,http://place.map.kakao.com/1393835722,37.5121963589602,127.026797552033,"가정,생활 > 결혼 > 웨딩스튜디오","{""모던"",""내추럴"",""럭셔리""}",강남구,100,300,피아스튜디오는 세련된 모던 감각과 자연스러운 느낌을 살린 웨딩 촬영을 제공합니다.,,0
9025308,S스튜디오 서울본점,studio,서울 서초구 잠원동 47-4,02-545-7860,http://place.map.kakao.com/9025308,37.5101862742262,127.01670786871,"가정,생활 > 결혼 > 웨딩스튜디오","{""모던"",""내추럴""}",서초구,100,300,S스튜디오 서울본점은 세련된 모던과 내추럴한 스타일을 강조하는 웨딩 스튜디오입니다.,,0
816077634,세인트지지오티,studio,서울 강남구 역삼동 624-24,02-2298-8888,http://place.map.kakao.com/816077634,37.50330334586657,127.03087595737074,"가정,생활 > 결혼 > 웨딩스튜디오","{""모던"",""럭셔리"",""클래식""}",강남구,100,300,세련된 모던 스타일의 고급 웨딩스튜디오,,0
1148096606,아키스튜디오,studio,서울 강남구 역삼동 609-11,,http://place.map.kakao.com/1148096606,37.5056705307027,127.033296102102,"가정,생활 > 결혼 > 웨딩스튜디오","{""모던"",""클래식"",""로맨틱""}",강남구,100,300,아키스튜디오는 모던하고 클래식한 웨딩 사진 촬영을 전문으로 하는 고급 웨딩 스튜디오입니다.,,0
994791776,꼬모스튜디오,studio,서울 용산구 한남동 743-23,02-2088-2897,http://place.map.kakao.com/994791776,37.5377599265632,126.998755387157,"가정,생활 > 결혼 > 웨딩스튜디오","{""모던"",""내추럴"",""클래식"",""로맨틱""}",용산구,100,300,꼬모스튜디오는 다양한 스타일의 웨딩 촬영을 전문으로 하는 스튜디오입니다.,,0
18508575,까미유스냅,studio,서울 강남구 논현동 238-12,02-3442-0266,http://place.map.kakao.com/18508575,37.51551298726632,127.03672779894585,"가정,생활 > 결혼 > 웨딩스튜디오","{""모던"",""내추럴""}",강남구,100,300,현대적이고 자연스러운 웨딩 촬영을 제공하는 스튜디오,,0
22249338,느와르블랑하우스,studio,서울 강남구 논현동 35-3,02-516-8444,http://place.map.kakao.com/22249338,37.51607213750223,127.02825810673534,"가정,생활 > 결혼 > 웨딩스튜디오","{""모던"",""럭셔리"",""로맨틱""}",강남구,100,300,최고급 웨딩 촬영 서비스를 제공하는 프리미엄 웨딩 스튜디오,,0
1711256598,리안마리,studio,서울 강남구 청담동 117-38,,http://place.map.kakao.com/1711256598,37.52555956252052,127.04816998322234,"가정,생활 > 결혼 > 웨딩스튜디오","{""모던"",""로맨틱""}",강남구,100,300,감각적인 촬영과 세련된 공간으로 특별한 웨딩을 제공합니다.,,0
1323273702,소피소스튜디오,studio,서울 강남구 삼성동 35-13,02-516-8444,http://place.map.kakao.com/1323273702,37.511377590999494,127.04401550435364,"가정,생활 > 결혼 > 웨딩스튜디오","{""모던"",""로맨틱""}",강남구,100,300,소피소스튜디오는 모던하고 로맨틱한 분위기를 제공하는 웨딩 스튜디오입니다.,,0
784991303,보어하우스,studio,서울 강남구 역삼동 623-11,02-553-2345,http://place.map.kakao.com/784991303,37.50409912669215,127.03012872184664,"가정,생활 > 결혼 > 웨딩스튜디오","{""모던"",""내추럴"",""클래식"",""럭셔리""}",강남구,100,300,보어하우스는 다양한 스타일의 웨딩 촬영을 제공하는 전문 웨딩 스튜디오입니다.,,0
19541357,비슈어,studio,서울 강남구 역삼동 725-18,02-540-3519,http://place.map.kakao.com/19541357,37.4997435027287,127.039807409729,"가정,생활 > 결혼 > 웨딩스튜디오","{""모던"",""로맨틱""}",강남구,100,300,비슈어는 모던하고 로맨틱한 스타일의 웨딩 사진을 제공하는 스튜디오입니다.,,0
1041858510,대디롱레그스 에르모소,studio,서울 강남구 논현동 111-35,02-6407-3641,http://place.map.kakao.com/1041858510,37.51902486816302,127.0402022526045,"가정,생활 > 결혼 > 웨딩스튜디오","{""모던"",""로맨틱""}",강남구,100,300,모던하고 로맨틱한 촬영 스타일을 제공하는 웨딩 스튜디오,,0
12322436,포에버마인스튜디오,studio,서울 강남구 논현동 56-5,02-514-3530,http://place.map.kakao.com/12322436,37.513172376902176,127.02576181805881,"가정,생활 > 결혼 > 웨딩스튜디오","{""모던"",""클래식""}",강남구,100,300,포에버마인스튜디오는 다양한 스타일을 제공하는 웨딩 스튜디오입니다.,,0
487108207,미루스튜디오,studio,서울 강남구 논현동 77-17,,http://place.map.kakao.com/487108207,37.5176441654223,127.032620461682,"가정,생활 > 결혼 > 웨딩스튜디오","{""모던"",""내추럴"",""로맨틱""}",강남구,100,300,미루스튜디오는 세련된 현대적 디자인과 자연스러운 분위기를 강조하는 웨딩 스튜디오입니다.,,0
1190916172,소율스튜디오,studio,서울 강남구 역삼동 608-10,02-558-6619,http://place.map.kakao.com/1190916172,37.5050794547321,127.033354650181,"가정,생활 > 결혼 > 웨딩스튜디오","{""모던"",""럭셔리""}",강남구,100,300,소율스튜디오는 현대적이고 럭셔리한 웨딩 촬영을 전문으로 하는 스튜디오입니다.,,0
1014894349,테레지아스튜디오,studio,서울 강남구 논현동 151-17,02-544-2624,http://place.map.kakao.com/1014894349,37.51115830086171,127.03090068293858,"가정,생활 > 결혼 > 웨딩스튜디오","{""모던"",""클래식"",""로맨틱""}",강남구,100,300,테레지아스튜디오는 다양한 스타일의 웨딩 촬영을 제공하는 현대적인 웨딩스튜디오입니다.,,0
17408875,문스냅,studio,서울 강남구 역삼동 799-16,0505-555-0200,http://place.map.kakao.com/17408875,37.4921178269444,127.038464522017,"가정,생활 > 결혼 > 웨딩스튜디오","{""모던"",""내추럴"",""클래식""}",강남구,100,300,모던하고 자연스러운 웨딩 촬영을 전문으로 하는 스튜디오,,0
275397867,미세인트스튜디오,studio,서울 용산구 한남동 1-2,02-514-0416,http://place.map.kakao.com/275397867,37.53735188958387,127.01367143181727,"가정,생활 > 결혼 > 웨딩스튜디오","{""모던"",""내추럴"",""클래식"",""럭셔리""}",용산구,100,300,미세인트스튜디오는 다양한 스타일의 웨딩 촬영을 전문으로 하는 스튜디오입니다.,,0
642852151,스튜디오 부겐빌리아,studio,서울 강남구 역삼동 632,02-508-8955,http://place.map.kakao.com/642852151,37.5029860821133,127.031293144027,"가정,생활 > 결혼 > 웨딩스튜디오","{""모던"",""로맨틱""}",강남구,100,300,세련되고 로맨틱한 웨딩 사진을 전문으로 하는 스튜디오입니다.,,0
1572929070,멜린스튜디오,studio,서울 강남구 역삼동 629-9,02-553-2468,http://place.map.kakao.com/1572929070,37.5032771779229,127.03428348567128,"가정,생활 > 결혼 > 웨딩스튜디오","{""모던"",""로맨틱""}",강남구,100,300,세련된 감각의 웨딩 촬영을 전문으로 하는 스튜디오,,0
1439002465,테이크마인드,studio,서울 서초구 양재동 74,010-2586-5272,http://place.map.kakao.com/1439002465,37.4772863592692,127.03548356262968,"가정,생활 > 결혼 > 웨딩스튜디오","{""모던"",""내추럴"",""클래식""}",서초구,100,300,세련된 디자인과 자연스러운 느낌을 제공하는 웨딩스튜디오,,0
1022723241,디하우스스튜디오,studio,서울 강남구 논현동 10-32,02-3446-7707,http://place.map.kakao.com/1022723241,37.5174979446133,127.026446525753,"가정,생활 > 결혼 > 웨딩스튜디오","{""모던"",""내추럴"",""클래식"",""럭셔리""}",강남구,100,300,디하우스스튜디오는 다양한 스타일의 웨딩 촬영을 제공하는 전문 웨딩 스튜디오입니다.,,0
19392005,오중석웨딩스튜디오,studio,서울 강남구 역삼동 614-7,02-569-6030,http://place.map.kakao.com/19392005,37.5044137869295,127.029296459712,"가정,생활 > 결혼 > 웨딩스튜디오","{""모던"",""로맨틱""}",강남구,100,300,오중석웨딩스튜디오에서 제공하는 다양한 스타일의 웨딩 촬영 솔루션.,,0
7963386,소호스튜디오,studio,서울 강남구 논현동 101-6,02-514-7315,http://place.map.kakao.com/7963386,37.520300926793475,127.03949593569122,"가정,생활 > 결혼 > 웨딩스튜디오","{""모던"",""내추럴"",""클래식""}",강남구,100,300,소호스튜디오는 다양한 스타일의 웨딩 촬영을 전문으로 하는 고품격 웨딩스튜디오입니다.,,0
376643896,미모아 스튜디오,studio,서울 강남구 역삼동 633-16,02-518-6566,http://place.map.kakao.com/376643896,37.5018867981429,127.031507560916,"가정,생활 > 결혼 > 웨딩스튜디오","{""모던"",""로맨틱""}",강남구,100,300,미모아 스튜디오는 세련되고 로맨틱한 분위기를 자랑하는 웨딩 스튜디오입니다.,,0
1911712146,보넬리가든,studio,서울 서초구 내곡동 1-1256,02-451-6166,http://place.map.kakao.com/1911712146,37.45575415776547,127.07108918005976,"가정,생활 > 결혼 > 웨딩스튜디오","{""모던"",""내추럴""}",서초구,100,300,모던하고 내추럴한 웨딩 스타일을 제공하는 스튜디오.,,0
1807436846,바로오늘이그날,studio,서울 강남구 삼성동 26-1,02-6204-6677,http://place.map.kakao.com/1807436846,37.5150682519952,127.04824920464,"가정,생활 > 결혼 > 웨딩스튜디오","{""모던"",""로맨틱""}",강남구,100,300,세련되고 감각적인 웨딩 촬영을 전문으로 하는 스튜디오입니다.,,0
135670825,멜로필드,studio,서울 서대문구 연희동 437-5,,http://place.map.kakao.com/135670825,37.56880424130837,126.92775987165298,"가정,생활 > 결혼 > 웨딩스튜디오","{""모던"",""클래식"",""로맨틱""}",서대문구,100,300,멜로필드는 다양한 스타일의 웨딩촬영을 전문으로 하는 스튜디오입니다.,,0
1832557660,베이스,studio,서울 서대문구 연희동 413-3,070-8064-4133,http://place.map.kakao.com/1832557660,37.5666857302648,126.924448836469,"가정,생활 > 결혼 > 웨딩스튜디오","{""모던"",""내추럴""}",서대문구,100,300,고급스러운 분위기와 자연광을 활용한 웨딩 촬영 전문 스튜디오,,0
1344283255,더러비엔,studio,서울 영등포구 영등포동7가 94-13,010-6606-3187,http://place.map.kakao.com/1344283255,37.5245997275667,126.908661477045,"가정,생활 > 결혼 > 웨딩스튜디오",{},영등포구,100,300,모던하고 내추럴한 웨딩스튜디오.,,0
1159397566,보다연희재,studio,서울 서대문구 연희동 200-42,02-512-3512,http://place.map.kakao.com/1159397566,37.57230167297632,126.93037365067258,"가정,생활 > 결혼 > 웨딩스튜디오","{""모던"",""내추럴"",""클래식""}",서대문구,100,300,현대적인 감각과 자연스러운 분위기를 강조하는 웨딩스튜디오,,0
1402965863,화이트모티브,studio,서울 마포구 성산동 245-47,02-6346-7711,http://place.map.kakao.com/1402965863,37.55889127183529,126.91156227637715,"가정,생활 > 결혼 > 웨딩스튜디오","{""모던"",""내추럴"",""클래식""}",마포구,100,300,화이트모티브는 모던하고 내추럴한 스타일의 웨딩 촬영을 제공하는 전문 스튜디오입니다.,,0
888091191,고유,studio,서울 마포구 마포동 450,010-8859-7353,http://place.map.kakao.com/888091191,37.53703491267041,126.9441004548786,"가정,생활 > 결혼 > 웨딩스튜디오","{""모던"",""내추럴""}",마포구,200,500,신부의 아름다움을 강조하는 다채로운 웨딩 패키지를 제공합니다.,,0
1751738708,디와이피포토,studio,서울 마포구 동교동 146-8,0502-5553-8363,http://place.map.kakao.com/1751738708,37.55987176506043,126.92630055165895,"가정,생활 > 결혼 > 웨딩스튜디오","{""모던"",""내추럴"",""클래식""}",마포구,100,300,다양한 스타일의 웨딩사진을 전문으로 하는 스튜디오,,0
1355747317,이안로맨스,studio,서울 마포구 상수동 333-16,0503-7151-8310,http://place.map.kakao.com/1355747317,37.5467485785594,126.921857225575,"가정,생활 > 결혼 > 웨딩스튜디오","{""모던"",""로맨틱""}",마포구,100,300,"모던하고 로맨틱한 분위기의 웨딩스튜디오로, 다양한 촬영 옵션을 제공합니다.",,0
1946074932,앤아워스튜디오,studio,서울 마포구 서교동 378-12,0503-7152-7847,http://place.map.kakao.com/1946074932,37.5521887010307,126.916439833069,"가정,생활 > 결혼 > 웨딩스튜디오","{""모던"",""내추럴""}",마포구,100,300,현대적이고 자연 친화적인 웨딩 사진 촬영 전문 스튜디오,,0
26431572,모노페이퍼,studio,서울 서대문구 연희동 200-52,070-4274-1599,http://place.map.kakao.com/26431572,37.573283608310255,126.93012143179021,"가정,생활 > 결혼 > 웨딩스튜디오","{""모던"",""내추럴""}",서대문구,100,300,모노페이퍼는 자연광을 활용한 감각적인 웨딩 촬영으로 유명한 웨딩스튜디오입니다.,,0
1294165368,로렌필름,studio,서울 마포구 합정동 372-28,0507-1358-8051,http://place.map.kakao.com/1294165368,37.5473666265525,126.91402469993,"가정,생활 > 결혼 > 웨딩스튜디오","{""모던"",""내추럴"",""클래식""}",마포구,100,300,로렌필름은 다양한 스타일의 웨딩 촬영을 제공하는 현대적인 웨딩 스튜디오입니다.,,0
15432520,필스튜디오,studio,서울 마포구 서교동 334-3,,http://place.map.kakao.com/15432520,37.5554028004561,126.927727540976,"가정,생활 > 결혼 > 웨딩스튜디오","{""모던"",""내추럴"",""클래식"",""로맨틱""}",마포구,100,300,세련된 웨딩 촬영과 다양한 스타일의 촬영 옵션을 제공하는 스튜디오,,0
565813265,켈리앤수,studio,서울 마포구 연남동 487-61,,http://place.map.kakao.com/565813265,37.56308529857896,126.91763534692105,"가정,생활 > 결혼 > 웨딩스튜디오","{""모던"",""내추럴"",""로맨틱""}",마포구,100,300,"서울 마포구에 위치한 웨딩스튜디오로, 다양한 스타일의 촬영을 제공합니다.",,0
925773686,모먼트무브,studio,서울 마포구 망원동 479-18,010-3701-6699,http://place.map.kakao.com/925773686,37.5597420154569,126.90486894829,"가정,생활 > 결혼 > 웨딩스튜디오","{""모던"",""내추럴""}",마포구,100,300,"모먼트무브는 현대적이고 자연스러운 웨딩 스튜디오로, 특별한 순간을 담아드립니다.",,0
744370833,큐피도서울,studio,서울 서대문구 연희동 133-25,0503-7154-1835,http://place.map.kakao.com/744370833,37.5685574416666,126.930892165005,"가정,생활 > 결혼 > 웨딩스튜디오","{""모던"",""로맨틱""}",서대문구,100,300,"세련된 분위기의 웨딩스튜디오로, 다양한 스타일의 촬영 옵션 제공.",,0
10195131,꽃피는봄스튜디오,studio,서울 마포구 서교동 403-21,,http://place.map.kakao.com/10195131,37.5490692833425,126.920110950516,"가정,생활 > 결혼 > 웨딩스튜디오","{""모던"",""내추럴"",""클래식""}",마포구,100,300,아름다운 웨딩 촬영을 위한 전문 스튜디오,,0
519037098,가로수필름,studio,서울 마포구 연남동 387-15,,http://place.map.kakao.com/519037098,37.5626779139221,126.92557453998,"가정,생활 > 결혼 > 웨딩스튜디오","{""모던"",""내추럴""}",마포구,100,300,자연스러운 분위기에서 현대적인 웨딩 촬영을 제공하는 스튜디오,,0
658435191,그렉앤맷,studio,서울 마포구 성산동 591-4,0507-1489-1436,http://place.map.kakao.com/658435191,37.56479938352657,126.90275043946562,"가정,생활 > 결혼 > 웨딩스튜디오","{""모던"",""로맨틱""}",마포구,200,300,현대적 감각과 자연스러운 아름다움을 강조하는 웨딩스튜디오입니다.,,0
1598438944,강산픽,studio,서울 마포구 서교동 347-21,010-6527-1089,http://place.map.kakao.com/1598438944,37.55581525366664,126.92452205805523,"가정,생활 > 결혼 > 웨딩스튜디오",{},마포구,100,300,다양한 스타일의 웨딩 촬영을 전문으로 하는 웨딩스튜디오,,0
1707604975,바닐라페이퍼 스튜디오,studio,서울 마포구 성산동 108-11,010-3674-1882,http://place.map.kakao.com/1707604975,37.56275864575494,126.91440995152679,"가정,생활 > 결혼 > 웨딩스튜디오","{""모던"",""내추럴""}",마포구,100,300,바닐라페이퍼 스튜디오는 모던하고 내추럴한 웨딩 촬영을 제공하는 스튜디오입니다.,,0
1707120896,더그레이스무비,studio,서울 강서구 등촌동 14-7,070-8670-2490,http://place.map.kakao.com/1707120896,37.564325168549054,126.84787473983418,"가정,생활 > 결혼 > 웨딩스튜디오","{""모던"",""로맨틱""}",강서구,100,300,다양한 스타일의 웨딩 촬영을 전문으로 하는 스튜디오,,0
966485810,프아브르,studio,서울 마포구 합정동 362-11,010-6464-2408,http://place.map.kakao.com/966485810,37.5473694140062,126.917942334479,"가정,생활 > 결혼 > 웨딩스튜디오","{""모던"",""내추럴"",""럭셔리""}",마포구,100,300,프아브르는 현대적이고 자연 친화적인 웨딩스튜디오입니다.,,0
1732693096,서울클래식필름,studio,서울 마포구 상암동 33-1,010-3443-9630,http://place.map.kakao.com/1732693096,37.5762925766103,126.895488119855,"가정,생활 > 결혼 > 웨딩스튜디오","{""모던"",""내추럴"",""클래식"",""로맨틱""}",마포구,100,300,서울클래식필름은 다양한 스타일의 웨딩 촬영을 제공하는 스튜디오입니다.,,0
200642757,웨딩비디오스튜디오,studio,서울 마포구 서교동 446-60,,http://place.map.kakao.com/200642757,37.5555552462611,126.918324939739,"가정,생활 > 결혼 > 웨딩스튜디오","{""모던"",""로맨틱""}",마포구,100,300,웨딩비디오스튜디오에서 제공하는 고퀄리티 웨딩 영상 촬영 서비스.,,0
1190091554,하루관,studio,서울 강서구 등촌동 662-3,070-8080-5747,http://place.map.kakao.com/1190091554,37.558502851973,126.847811880138,"가정,생활 > 결혼 > 웨딩스튜디오","{""모던"",""로맨틱""}",강서구,100,300,세련된 디자인과 아늑한 분위기로 기억에 남는 순간을 제공합니다.,,0
1070375597,에스뜨레아,studio,서울 강서구 등촌동 14-7,,http://place.map.kakao.com/1070375597,37.5642936629566,126.847897441227,"가정,생활 > 결혼 > 웨딩스튜디오","{""모던"",""내추럴"",""클래식""}",강서구,100,300,"다양한 스타일을 제공하는 웨딩스튜디오로, 모던하고 자연스러운 촬영을 강조합니다.",,0
14714345,하우스아트웨딩,studio,서울 강서구 등촌동 707-1,02-3661-1053,http://place.map.kakao.com/14714345,37.5618577703544,126.851037561272,"가정,생활 > 결혼 > 웨딩스튜디오","{""모던"",""내추럴""}",강서구,100,300,"서울 강서구에 위치한 웨딩스튜디오로, 모던하고 내추럴한 스타일의 촬영을 전문으로 합니다.",,0
1791432816,클래식,studio,서울 마포구 성산동 275-1,0503-7151-7454,http://place.map.kakao.com/1791432816,37.5638373395467,126.907508898026,"가정,생활 > 결혼 > 웨딩스튜디오","{""클래식""}",마포구,100,300,전통적인 클래식 스타일의 웨딩 촬영 전문 업체,,0
854528234,블리스플 웨딩스냅,studio,서울 마포구 상암동 1601,,http://place.map.kakao.com/854528234,37.5801068498846,126.888981102438,"가정,생활 > 결혼 > 웨딩스튜디오","{""내추럴"",""로맨틱""}",마포구,100,300,모던하고 내추럴한 분위기의 웨딩 스냅 촬영 전문 업체,,0
7837803,더페이스스튜디오,studio,서울 마포구 서교동 464-60,02-336-5828,http://place.map.kakao.com/7837803,37.5549386473237,126.917868395543,"가정,생활 > 결혼 > 웨딩스튜디오","{""모던"",""내추럴"",""클래식""}",마포구,100,300,더페이스스튜디오는 다양한 스타일의 웨딩 촬영을 제공하는 전문 웨딩 스튜디오입니다.,,0
11152817,좋은사진스튜디오,studio,서울 마포구 서교동 363-24,02-338-5191,http://place.map.kakao.com/11152817,37.5511432597876,126.92263462037,"가정,생활 > 결혼 > 웨딩스튜디오","{""모던"",""내추럴"",""클래식""}",마포구,100,300,다양한 촬영 스타일과 편안한 분위기로 특별한 순간을 기록하는 웨딩 스튜디오,,0
66733200,두근거림준,studio,서울 마포구 연남동 567-30,02-332-7095,http://place.map.kakao.com/66733200,37.56025049743317,126.92256748248869,"가정,생활 > 결혼 > 웨딩스튜디오","{""모던"",""로맨틱""}",마포구,100,300,두근거림준은 내추럴하면서도 모던한 웨딩스튜디오입니다.,,0
604618185,라이브웨딩,studio,서울 서대문구 북아현동 251-43,,http://place.map.kakao.com/604618185,37.557205338086,126.949582349342,"가정,생활 > 결혼 > 웨딩스튜디오","{""모던"",""내추럴"",""로맨틱""}",서대문구,100,300,차별화된 웨딩 촬영을 제공하는 스튜디오,,0
8118535,파라클레토스웨딩,studio,서울 영등포구 여의도동 12-5,02-783-0206,http://place.map.kakao.com/8118535,37.5295202491156,126.924150329667,"가정,생활 > 결혼 > 웨딩스튜디오","{""모던"",""로맨틱""}",영등포구,100,300,세련되고 따뜻한 분위기로 다양한 웨딩 스타일 제공,,0
123453479,오블랭크오,studio,서울 마포구 망원동 57-498,,http://place.map.kakao.com/123453479,37.5568162741821,126.908022338916,"가정,생활 > 결혼 > 웨딩스튜디오","{""모던"",""내추럴""}",마포구,100,300,세련된 모던 감각과 자연스러운 아름다움을 강조하는 웨딩스튜디오,,0
8358324,리뷰스튜디오,studio,서울 마포구 서교동 476-25,02-322-9017,http://place.map.kakao.com/8358324,37.554703927171,126.912219096799,"가정,생활 > 결혼 > 웨딩스튜디오","{""모던"",""내추럴"",""로맨틱""}",마포구,100,300,리뷰스튜디오에서 다양한 스타일의 웨딩 촬영을 제공합니다.,,0
656281037,로엔스냅,studio,서울 마포구 상암동 1660,02-306-4300,http://place.map.kakao.com/656281037,37.5827563050924,126.882099379551,"가정,생활 > 결혼 > 웨딩스튜디오","{""모던"",""내추럴"",""로맨틱""}",마포구,100,300,다양한 스타일의 웨딩 촬영을 제공하는 전문 웨딩 스튜디오.,,0
10540308,스냅코리아,studio,서울 마포구 합정동 371-4,,http://place.map.kakao.com/10540308,37.5471655852743,126.913861979271,"가정,생활 > 결혼 > 웨딩스튜디오","{""모던"",""로맨틱""}",마포구,100,300,스냅코리아는 다양한 스타일의 웨딩 사진 촬영을 전문으로 하는 웨딩 스튜디오입니다.,,0
8082174,톰스튜디오,studio,서울 마포구 연남동 570-38,,http://place.map.kakao.com/8082174,37.5582591305204,126.919625794269,"가정,생활 > 결혼 > 웨딩스튜디오","{""모던"",""로맨틱""}",마포구,100,300,신부의 특별한 날을 위한 예술적인 웨딩 사진을 제공합니다.,,0
10991738,제이앤제이스튜디오,studio,서울 마포구 동교동 200-18,,http://place.map.kakao.com/10991738,37.5579217461151,126.921695033553,"가정,생활 > 결혼 > 웨딩스튜디오","{""모던"",""내추럴"",""클래식""}",마포구,100,300,자연광을 활용한 현대적인 웨딩 촬영 중심의 스튜디오,,0
7836652,도노스튜디오,studio,서울 마포구 서교동 373-16,02-337-2307,http://place.map.kakao.com/7836652,37.5520052335482,126.918206592305,"가정,생활 > 결혼 > 웨딩스튜디오","{""모던"",""내추럴"",""클래식"",""로맨틱""}",마포구,100,300,도노스튜디오는 다양한 스타일의 웨딩 촬영과 맞춤형 서비스를 제공하는 전문 웨딩스튜디오입니다.,,0
1025296080,페어리스튜디오,studio,서울 마포구 성산동 114-3,010-5113-5171,http://place.map.kakao.com/1025296080,37.5623661080031,126.914820125916,"가정,생활 > 결혼 > 웨딩스튜디오","{""모던"",""내추럴"",""클래식"",""로맨틱""}",마포구,100,300,페어리스튜디오는 다양한 스타일을 제공하는 웨딩 스튜디오입니다.,,0
27504515,세이슌스튜디오,studio,서울 마포구 서교동 338-54,02-326-0788,http://place.map.kakao.com/27504515,37.55342702377576,126.92644836141879,"문화,예술 > 사진 > 사진관,포토스튜디오","{""모던"",""내추럴"",""로맨틱""}",마포구,100,300,세련되고 자연스러운 사진 스타일을 추구하는 포토스튜디오입니다.,,0
12783848,크레타스튜디오,studio,서울 서대문구 연희동 70-7,02-3142-0010,http://place.map.kakao.com/12783848,37.57286010081265,126.93812278117115,"문화,예술 > 사진 > 사진관,포토스튜디오","{""모던"",""내추럴""}",서대문구,100,300,현대적이고 자연스러운 느낌을 강조한 전문 사진 촬영 스튜디오,,0
1905730634,플러스준스튜디오 홍대,studio,서울 마포구 성산동 46-1,02-336-7750,http://place.map.kakao.com/1905730634,37.5628312006604,126.912598916617,"문화,예술 > 사진 > 사진관,포토스튜디오","{""모던"",""내추럴""}",마포구,100,300,플러스준스튜디오 홍대는 현대적인 감각과 자연스러운 촬영 스타일을 제공하는 포토스튜디오입니다.,,0
1851629738,더브라이드스튜디오,studio,서울 송파구 송파동 48-13,,http://place.map.kakao.com/1851629738,37.5103330955389,127.111453854756,"가정,생활 > 결혼 > 웨딩스튜디오",{},송파구,100,300,모던하고 내추럴한 웨딩 촬영을 전문으로 하는 스튜디오,,0
1999557636,로맨틱애비뉴스튜디오,studio,서울 강남구 자곡동 447-25,1577-6390,http://place.map.kakao.com/1999557636,37.4739462357827,127.100040505914,"가정,생활 > 결혼 > 웨딩스튜디오","{""로맨틱""}",강남구,100,300,세련되고 로맨틱한 웨딩촬영을 전문으로 하는 스튜디오입니다.,,0
1217527937,레코드디데이,studio,서울 광진구 자양동 84-1,,http://place.map.kakao.com/1217527937,37.5331381719111,127.064562000357,"가정,생활 > 결혼 > 웨딩스튜디오","{""내추럴"",""로맨틱""}",광진구,100,300,모던하고 자연스러운 웨딩 촬영을 전문으로 하는 스튜디오.,,0
953176037,이경호포토그라피 2호점,studio,서울 강남구 자곡동 446-8,02-3446-9583,http://place.map.kakao.com/953176037,37.4737197310953,127.099389036202,"가정,생활 > 결혼 > 웨딩스튜디오","{""모던"",""내추럴"",""클래식"",""로맨틱""}",강남구,100,300,이경호포토그라피 2호점은 다양한 스타일의 웨딩 사진을 제공합니다.,,0
19110384,원세컨드스튜디오,studio,서울 강남구 대치동 1006,02-515-7304,http://place.map.kakao.com/19110384,37.50520103239774,127.06572093390294,"가정,생활 > 결혼 > 웨딩스튜디오","{""모던"",""내추럴"",""로맨틱""}",강남구,100,300,모던하고 내추럴한 감성을 담은 웨딩 스튜디오,,0
1224445460,유하하우스,studio,서울 광진구 화양동 29-22,,http://place.map.kakao.com/1224445460,37.5445470612011,127.073103864922,"가정,생활 > 결혼 > 웨딩스튜디오",{},광진구,100,300,모던하고 자연스러운 웨딩 촬영을 전문으로 하는 스튜디오,,0
60172267,벨로데이즈,studio,서울 송파구 잠실동 191-10,0502-5551-4044,http://place.map.kakao.com/60172267,37.509913250079194,127.08166715163361,"가정,생활 > 결혼 > 웨딩스튜디오","{""모던"",""내추럴""}",송파구,100,300,벨로데이즈는 모던하고 내추럴한 웨딩 촬영을 전문으로 하는 스튜디오입니다.,,0
1019855872,윌하우스,studio,서울 강동구 성내동 64-13,,http://place.map.kakao.com/1019855872,37.5381005324865,127.123760313112,"가정,생활 > 결혼 > 웨딩스튜디오","{""모던"",""클래식"",""로맨틱""}",강동구,100,300,윌하우스는 다양한 스타일을 제공하는 웨딩스튜디오입니다.,,0
102564603,블랑논,studio,서울 송파구 가락동 79-7,,http://place.map.kakao.com/102564603,37.494736004202,127.121300436631,"가정,생활 > 결혼 > 웨딩스튜디오",{},송파구,100,300,모던하고 내추럴한 분위기의 웨딩스튜디오,,0
2536720,모닌하우스 스튜디오,studio,서울 강남구 삼성동 85-21,,http://place.map.kakao.com/2536720,37.5177781118772,127.06074352807,"가정,생활 > 결혼 > 웨딩스튜디오","{""모던"",""로맨틱""}",강남구,100,300,모닌하우스 스튜디오는 세련된 모던과 로맨틱 스타일의 웨딩 촬영을 전문으로 하는 웨딩 스튜디오입니다.,,0
1209387015,루가토스튜디오,studio,서울 송파구 잠실동 191-10,02-417-2485,http://place.map.kakao.com/1209387015,37.5099186881535,127.081620784691,"가정,생활 > 결혼 > 웨딩스튜디오","{""모던"",""로맨틱""}",송파구,100,300,전문 웨딩 촬영을 제공하는 모던하고 로맨틱한 웨딩 스튜디오.,,0
1173794714,터치바이라움,studio,서울 송파구 송파동 32-2,02-511-9870,http://place.map.kakao.com/1173794714,37.5100783707113,127.106284587955,"가정,생활 > 결혼 > 웨딩스튜디오","{""모던"",""로맨틱""}",송파구,100,300,자연과 현대미를 조화롭게 담아낸 웨딩 스튜디오,,0
8076126,지오필름,studio,서울 광진구 화양동 3-35,,http://place.map.kakao.com/8076126,37.5427747697426,127.071676391772,"가정,생활 > 결혼 > 웨딩스튜디오","{""모던"",""내추럴""}",광진구,100,300,현대적인 감각과 자연스러운 분위기를 갖춘 웨딩스튜디오,,0
13727146,웨딩데이,studio,서울 강동구 길동 152-6,070-8635-1119,http://place.map.kakao.com/13727146,37.5350014481292,127.142618288271,"가정,생활 > 결혼 > 웨딩스튜디오","{""모던"",""로맨틱""}",강동구,100,300,웨딩스튜디오 전문 업체로 현대적이고 로맨틱한 분위기를 제공합니다.,,0
2026275143,더화이트가든,studio,서울 광진구 자양동 630-42,02-545-4490,http://place.map.kakao.com/2026275143,37.5348421031666,127.083078057067,"가정,생활 > 결혼 > 웨딩스튜디오","{""모던"",""내추럴""}",광진구,100,300,자연과 현대적인 매력을 조화롭게 담은 웨딩스튜디오,,0
2093748351,플로레스타,studio,서울 강남구 대치동 999,,http://place.map.kakao.com/2093748351,37.5082028538914,127.066306040692,"가정,생활 > 결혼 > 웨딩스튜디오","{""모던"",""내추럴"",""클래식"",""로맨틱""}",강남구,100,300,플로레스타는 세련된 분위기와 다양한 스타일의 웨딩 촬영을 제공하는 웨딩스튜디오입니다.,,0
23151044,가든파이브 웨딩미용실,studio,서울 송파구 문정동 628,,http://place.map.kakao.com/23151044,37.4786174104103,127.119103677255,"가정,생활 > 결혼 > 웨딩스튜디오","{""모던"",""로맨틱""}",송파구,100,300,가든파이브 웨딩미용실은 현대적이고 로맨틱한 스타일의 웨딩 서비스를 제공합니다.,,0
19612582,사랑하다,studio,서울 송파구 송파동 32-2,02-511-0726,http://place.map.kakao.com/19612582,37.51008196861699,127.1062913793434,"가정,생활 > 결혼 > 웨딩스튜디오","{""모던"",""클래식"",""로맨틱""}",송파구,100,300,사랑스러운 웨딩 촬영과 다양한 스타일 제공,,0
186750315,파이브레터스,studio,서울 송파구 송파동 32-2,02-511-9870,http://place.map.kakao.com/186750315,37.51008196861699,127.1062913793434,"가정,생활 > 결혼 > 웨딩스튜디오","{""모던"",""클래식"",""로맨틱""}",송파구,100,300,파이브레터스는 다양한 스타일의 웨딩 촬영을 제공하는 전문 웨딩 스튜디오입니다.,,0
18553650,그안스튜디오,studio,서울 강남구 삼성동 24-27,,http://place.map.kakao.com/18553650,37.5145700507428,127.0502803681,"가정,생활 > 결혼 > 웨딩스튜디오","{""모던"",""로맨틱""}",강남구,100,300,그안스튜디오는 모던하고 로맨틱한 웨딩 촬영을 전문으로 하는 스튜디오입니다.,,0
1931058099,와니스튜디오,studio,서울 강남구 청담동 123-17,010-5121-6721,http://place.map.kakao.com/1931058099,37.526200655672355,127.05130746677672,"가정,생활 > 결혼 > 웨딩스튜디오","{""모던"",""로맨틱""}",강남구,100,300,신랑 신부의 특별한 순간을 위한 프리미엄 웨딩 사진 촬영 전문 스튜디오,,0
10361750,로미오앤 줄리엣하우스,studio,서울 강남구 청담동 126-12,02-546-0268,http://place.map.kakao.com/10361750,37.5257671777786,127.051527770466,"가정,생활 > 결혼 > 웨딩스튜디오","{""모던"",""로맨틱""}",강남구,100,300,로맨틱한 분위기의 웨딩 사진 촬영을 전문으로 하는 스튜디오,,0
22962669,브라이덜H,studio,서울 강남구 청담동 70-17,070-8254-8999,http://place.map.kakao.com/22962669,37.520518207457826,127.05492682736651,"가정,생활 > 결혼 > 웨딩스튜디오","{""모던"",""내추럴"",""클래식"",""럭셔리""}",강남구,100,300,브라이덜H는 세련된 모던 스타일의 웨딩 촬영을 전문으로 하는 스튜디오입니다.,,0
13024426,디데이미디어,studio,서울 송파구 문정동 326-1,,http://place.map.kakao.com/13024426,37.48455358630912,127.12230609148229,"가정,생활 > 결혼 > 웨딩스튜디오","{""모던"",""로맨틱""}",송파구,100,300,디데이미디어는 현대적이고 로맨틱한 느낌의 웨딩 스튜디오입니다.,,0
18629724,라후,studio,서울 강남구 삼성동 147-7,,http://place.map.kakao.com/18629724,37.5127006583576,127.055871211559,"가정,생활 > 결혼 > 웨딩스튜디오","{""모던"",""럭셔리"",""로맨틱""}",강남구,100,300,세련된 분위기와 고급스러운 웨딩 촬영을 제공하는 스튜디오,,0
405570771,더엠스냅,studio,서울 강동구 성내동 552-5,,http://place.map.kakao.com/405570771,37.5300580875431,127.122140507938,"가정,생활 > 결혼 > 웨딩스튜디오",{},강동구,100,300,다양한 스타일의 웨딩 촬영을 제공하는 전문 웨딩 스튜디오,,0
13070529,가을스튜디오,studio,서울 송파구 송파동 45-5,02-417-4321,http://place.map.kakao.com/13070529,37.50922140916498,127.11033134639807,"문화,예술 > 사진 > 사진관,포토스튜디오","{""모던"",""내추럴"",""클래식"",""로맨틱""}",송파구,100,300,자연광을 활용한 다양한 스타일의 웨딩 촬영을 전문으로 하는 사진관.,,0
10586815,앤디스스튜디오,studio,서울 강동구 둔촌동 517,02-2202-4779,http://place.map.kakao.com/10586815,37.5296809467449,127.13737682612,"문화,예술 > 사진 > 사진관,포토스튜디오","{""모던"",""로맨틱""}",강동구,100,300,다양한 스타일의 웨딩 사진을 전문으로 하는 포토스튜디오,,0
26099667,하루에스튜디오,studio,서울 강남구 삼성동 49-2,02-545-5580,http://place.map.kakao.com/26099667,37.5129193386997,127.050451186542,"문화,예술 > 사진 > 사진관,포토스튜디오","{""모던"",""내추럴"",""로맨틱""}",강남구,100,300,하루에스튜디오는 모던하고 내추럴한 느낌의 웨딩 사진을 전문으로 하는 스튜디오입니다.,,0
72526755,원스스튜디오,studio,서울 강남구 청담동 55-14,070-8015-5566,http://place.map.kakao.com/72526755,37.5230276089563,127.052710298327,"문화,예술 > 사진 > 사진관,포토스튜디오","{""모던"",""내추럴"",""로맨틱""}",강남구,100,300,원스스튜디오는 모던하고 내추럴한 분위기의 웨딩 사진 촬영 전문 스튜디오입니다.,,0
82680808,푼푼스튜디오,studio,서울 광진구 중곡동 131-10,0502-5550-4383,http://place.map.kakao.com/82680808,37.5554567212622,127.084681968432,"문화,예술 > 사진 > 사진관,포토스튜디오","{""모던"",""내추럴"",""로맨틱""}",광진구,100,300,푸른 자연을 배경으로 한 내추럴한 웨딩 촬영 전문 스튜디오.,,0
17380138,원규스튜디오,studio,서울 강남구 삼성동 98-4,02-518-6232,http://place.map.kakao.com/17380138,37.5178180576347,127.06359409594815,"문화,예술 > 사진 > 사진관,포토스튜디오","{""모던"",""내추럴"",""클래식"",""로맨틱""}",강남구,100,300,세련되고 다양한 스타일의 웨딩 촬영을 제공하는 포토 스튜디오,,0
1035973882,이터너티스튜디오,studio,서울 강동구 성내동 174-46,0507-1417-2602,http://place.map.kakao.com/1035973882,37.534008632320706,127.13168246396395,"문화,예술 > 사진 > 사진관,포토스튜디오","{""클래식"",""로맨틱""}",강동구,100,300,전통과 현대가 어우러진 감성적인 웨딩 사진 촬영 전문 스튜디오,,0
157705927,아우어스튜디오,studio,서울 강남구 삼성동 91-20,070-4277-7577,http://place.map.kakao.com/157705927,37.5156426180633,127.060968023568,"문화,예술 > 사진 > 사진관,포토스튜디오","{""모던"",""럭셔리"",""로맨틱""}",강남구,100,300,아우어스튜디오는 세련된 모던 스타일의 웨딩 사진을 전문으로 하는 포토스튜디오입니다.,,0
26490549,올댓스튜디오,studio,서울 송파구 가락동 91-3,010-2538-4701,http://place.map.kakao.com/26490549,37.4974450779344,127.118889307775,"문화,예술 > 사진 > 사진관,포토스튜디오","{""모던"",""내추럴"",""로맨틱""}",송파구,100,300,다양한 스타일의 웨딩 촬영을 전문으로 하는 포토스튜디오,,0
17494378,포툰스튜디오,studio,서울 강동구 길동 350-3,010-6485-6794,http://place.map.kakao.com/17494378,37.54064457363152,127.14322647295226,"문화,예술 > 사진 > 사진관,포토스튜디오","{""모던"",""내추럴"",""로맨틱""}",강동구,100,300,포토스튜디오 전문으로 모던하고 내추럴한 웨딩 사진을 제공합니다.,,0
2067920555,까네스튜디오,studio,서울 송파구 삼전동 123-5,010-4724-7457,http://place.map.kakao.com/2067920555,37.50414082454894,127.09565647268565,"문화,예술 > 사진 > 사진관,포토스튜디오","{""모던"",""내추럴"",""로맨틱""}",송파구,100,300,다양한 스타일의 웨딩 촬영을 전문으로 하는 포토 스튜디오.,,0
100267869,스튜디오자양리,studio,서울 광진구 자양동 553-358,010-9069-0123,http://place.map.kakao.com/100267869,37.5373306988036,127.067479123098,"문화,예술 > 사진 > 사진관,포토스튜디오 > 대여사진관","{""모던"",""내추럴"",""클래식""}",광진구,100,300,서울 광진구에 위치한 대여사진관 스튜디오자양리입니다.,,0
1056261511,무스튜디오,studio,서울 광진구 구의동 80-46,010-8005-8705,http://place.map.kakao.com/1056261511,37.5455172784121,127.085420963587,"문화,예술 > 사진 > 사진관,포토스튜디오","{""모던"",""내추럴"",""클래식"",""로맨틱""}",광진구,100,300,무스튜디오는 다양한 스타일의 웨딩 촬영을 전문으로 하는 포토스튜디오입니다.,,0
647391811,스튜디오디어썸,studio,서울 송파구 석촌동 235-6,010-7315-5021,http://place.map.kakao.com/647391811,37.50259260462937,127.10035353190857,"문화,예술 > 사진 > 사진관,포토스튜디오","{""모던"",""로맨틱""}",송파구,100,300,스튜디오디어썸은 감각적인 사진과 아름다운 순간을 담아주는 포토스튜디오입니다.,,0
806031748,코코패밀리스튜디오,studio,서울 송파구 방이동 212,02-422-9484,http://place.map.kakao.com/806031748,37.5096548058294,127.123084474323,"문화,예술 > 사진 > 사진관,포토스튜디오","{""모던"",""로맨틱""}",송파구,100,300,코코패밀리스튜디오는 다양한 스타일의 웨딩 사진을 제공하는 포토스튜디오입니다.,,0
11119790,스튜디오샘포토 서울강동점,studio,서울 강동구 길동 151,02-482-3020,http://place.map.kakao.com/11119790,37.53509495711471,127.1442624269179,"문화,예술 > 사진 > 사진관,포토스튜디오","{""모던"",""내추럴"",""클래식""}",강동구,100,300,전문 사진 촬영으로 다양한 스타일의 웨딩 사진을 제공합니다.,,0
1962695765,에이블스튜디오,studio,서울 강남구 삼성동 24-27,02-542-4008,http://place.map.kakao.com/1962695765,37.5145520282641,127.050286011587,"문화,예술 > 사진 > 사진관,포토스튜디오","{""모던"",""로맨틱""}",강남구,100,300,에이블스튜디오는 모던하고 로맨틱한 사진 촬영을 전문으로 하는 포토스튜디오입니다.,,0
935687485,W123스튜디오,studio,서울 송파구 송파동 32-2,,http://place.map.kakao.com/935687485,37.5100855807709,127.106282336083,"문화,예술 > 사진 > 사진관,포토스튜디오","{""모던"",""내추럴"",""클래식""}",송파구,100,300,W123스튜디오는 다양한 스타일의 웨딩 사진 촬영을 전문으로 하는 포토스튜디오입니다.,,0
1617346350,무이스튜디오 남산점,studio,서울 용산구 이태원동 258-2,0507-1363-9408,http://place.map.kakao.com/1617346350,37.5417071221435,126.995333587324,"가정,생활 > 결혼 > 웨딩스튜디오","{""모던"",""내추럴"",""클래식"",""럭셔리""}",용산구,100,300,서울 용산구에 위치한 다양한 스타일의 웨딩 촬영을 제공하는 프리미엄 웨딩 스튜디오.,,0
1742717470,테오그라피,studio,서울 성북구 성북동 209-3,02-541-3458,http://place.map.kakao.com/1742717470,37.59219709842938,126.99460463881557,"가정,생활 > 결혼 > 웨딩스튜디오","{""모던"",""내추럴"",""클래식""}",성북구,100,300,다양한 스타일의 웨딩 촬영을 전문으로 하는 스튜디오,,0
1102613209,볼라르스튜디오,studio,서울 중구 신당동 432-1636,02-6204-6699,http://place.map.kakao.com/1102613209,37.548627618069,127.006359763252,"가정,생활 > 결혼 > 웨딩스튜디오","{""모던"",""로맨틱""}",중구,100,300,서울 중구에 위치한 웨딩 스튜디오,,0
1771692448,더셀렉라운지,studio,서울 중구 신당동 357-10,,http://place.map.kakao.com/1771692448,37.555590329434,127.009393406729,"가정,생활 > 결혼 > 웨딩스튜디오","{""모던"",""럭셔리""}",중구,100,300,서울 중구에 위치한 럭셔리 웨딩스튜디오,,0
402737241,스튜디오 피네,studio,서울 종로구 종로2가 84-2,,http://place.map.kakao.com/402737241,37.56994628690398,126.98546459240237,"가정,생활 > 결혼 > 웨딩스튜디오","{""모던"",""내추럴"",""로맨틱""}",종로구,100,300,"서울 종로구에 위치한 웨딩스튜디오로, 다양한 스타일의 웨딩 촬영을 제공합니다.",,0
169241875,무이스튜디오 한남점,studio,서울 용산구 한남동 726-151,02-511-8902,http://place.map.kakao.com/169241875,37.5427604157809,127.003983027086,"가정,생활 > 결혼 > 웨딩스튜디오","{""모던"",""내추럴""}",용산구,100,300,현대적이고 자연스러운 웨딩 촬영을 제공하는 스튜디오,,0
1574469325,더블라썸스튜디오,studio,서울 종로구 동숭동 1-66,,http://place.map.kakao.com/1574469325,37.5824979942365,127.003088485966,"가정,생활 > 결혼 > 웨딩스튜디오","{""모던"",""클래식"",""로맨틱""}",종로구,100,300,모던하고 클래식한 웨딩 촬영을 전문으로 하는 스튜디오입니다.,,0
690450433,일드한남,studio,서울 용산구 한남동 743-23,,http://place.map.kakao.com/690450433,37.5377599265697,126.998755387157,"가정,생활 > 결혼 > 웨딩스튜디오","{""모던"",""로맨틱""}",용산구,100,300,일드한남은 세련되고 고급스러운 웨딩 촬영을 제공하는 스튜디오입니다.,,0
1086247658,채경스튜디오,studio,서울 중구 신당동 366-39,,http://place.map.kakao.com/1086247658,37.5519791928931,127.008564562899,"가정,생활 > 결혼 > 웨딩스튜디오","{""모던"",""내추럴"",""클래식""}",중구,100,300,채경스튜디오는 다양한 스타일의 웨딩 촬영을 제공하는 전문 스튜디오입니다.,,0
2046814864,율앤드유진,studio,서울 용산구 이태원동 261-25,,http://place.map.kakao.com/2046814864,37.5424032883802,126.990295943943,"가정,생활 > 결혼 > 웨딩스튜디오","{""모던"",""로맨틱""}",용산구,100,300,현대적이고 사랑스러운 분위기의 웨딩스튜디오,,0
1802000351,와이포티포필름즈,studio,서울 용산구 원효로2가 69-1,0503-7150-2758,http://place.map.kakao.com/1802000351,37.5357942012257,126.962180603573,"가정,생활 > 결혼 > 웨딩스튜디오","{""모던"",""내추럴"",""클래식""}",용산구,100,300,다양한 스타일을 제공하는 전문 웨딩 스튜디오,,0
1049213939,라헨스튜디오,studio,서울 종로구 평창동 158-1,02-6403-1413,http://place.map.kakao.com/1049213939,37.606863085848595,126.96900654067682,"가정,생활 > 결혼 > 웨딩스튜디오","{""모던"",""클래식"",""로맨틱""}",종로구,100,300,전통과 현대가 어우러진 웨딩 사진 전문 스튜디오,,0
1076691284,스튜디오 비보호좌회전,studio,서울 용산구 원효로2가 30-4,010-7733-8362,http://place.map.kakao.com/1076691284,37.5364369196553,126.963145402572,"가정,생활 > 결혼 > 웨딩스튜디오","{""모던"",""내추럴"",""클래식""}",용산구,100,300,스튜디오 비보호좌회전은 다양한 분위기의 웨딩 촬영을 제공하는 전문 웨딩 스튜디오입니다.,,0
890669932,모스앤코튼,studio,서울 종로구 행촌동 171-176,010-3051-2842,http://place.map.kakao.com/890669932,37.5726943908531,126.961640102201,"가정,생활 > 결혼 > 웨딩스튜디오","{""모던"",""내추럴"",""클래식""}",종로구,100,300,자연과 조화를 이룬 독특한 웨딩스튜디오,,0
345755945,데이데이,studio,서울 종로구 동숭동 1-37,02-554-4936,http://place.map.kakao.com/345755945,37.583266556901386,127.00243639667367,"가정,생활 > 결혼 > 웨딩스튜디오","{""모던"",""내추럴"",""클래식""}",종로구,100,300,고급스러운 스튜디오와 다양한 웨딩 서비스 제공,,0
1745296921,소울워크,studio,서울 종로구 동숭동 1-66,010-9133-5797,http://place.map.kakao.com/1745296921,37.58249078610459,127.00309527852502,"가정,생활 > 결혼 > 웨딩스튜디오","{""모던"",""클래식"",""로맨틱""}",종로구,,,소울워크는 다양한 웨딩 스타일을 제공하는 웨딩스튜디오입니다.,,0
11735831,남산아뜰리에,studio,서울 용산구 후암동 448-126,02-540-3897,http://place.map.kakao.com/11735831,37.5540498319458,126.978447668127,"가정,생활 > 결혼 > 웨딩스튜디오","{""모던"",""클래식"",""로맨틱""}",용산구,100,300,다양한 스타일의 웨딩 촬영을 제공하는 웨딩 스튜디오,,0
585371802,오어스스튜디오,studio,서울 중구 신당동 67-79,,http://place.map.kakao.com/585371802,37.5633646230391,127.019943255843,"가정,생활 > 결혼 > 웨딩스튜디오","{""모던"",""로맨틱""}",중구,100,300,오어스스튜디오는 모던하고 로맨틱한 웨딩 촬영을 전문으로 하는 웨딩 스튜디오입니다.,,0
39753720,한월,studio,서울 동대문구 용두동 764-11,010-7479-8406,http://place.map.kakao.com/39753720,37.5792777790644,127.025742689536,"가정,생활 > 결혼 > 웨딩스튜디오","{""모던"",""내추럴""}",동대문구,100,300,현대적이고 자연 친화적인 웨딩 스튜디오,,0
8675525,허리우드웨딩,studio,서울 중구 을지로1가 188-3,,http://place.map.kakao.com/8675525,37.5656007821189,126.979395125928,"가정,생활 > 결혼 > 웨딩스튜디오","{""모던"",""로맨틱""}",중구,100,300,허리우드웨딩은 모던하고 로맨틱한 분위기의 웨딩을 제공하는 웨딩 스튜디오입니다.,,0
19305515,웨딩그룹엘,studio,서울 종로구 통의동 140-3,,http://place.map.kakao.com/19305515,37.5772078381469,126.972667474822,"가정,생활 > 결혼 > 웨딩스튜디오","{""모던"",""클래식"",""로맨틱""}",종로구,100,300,고급스러운 웨딩 촬영과 다양한 패키지 제공.,,0
810623011,대원필름여백스냅,studio,서울 용산구 문배동 24-21,010-3014-6910,http://place.map.kakao.com/810623011,37.5366150516559,126.96844841576,"가정,생활 > 결혼 > 웨딩스튜디오","{""모던"",""내추럴"",""클래식""}",용산구,100,300,대원필름여백스냅은 세련된 모던 스타일의 웨딩 촬영을 전문으로 하는 스튜디오입니다.,,0
25118760,엔케이결혼,studio,서울 용산구 동자동 56,010-5558-4120,http://place.map.kakao.com/25118760,37.55108260518356,126.97290787818616,"가정,생활 > 결혼 > 웨딩스튜디오","{""모던"",""클래식"",""로맨틱""}",용산구,100,300,현대적이고 우아한 웨딩 촬영을 전문으로 하는 스튜디오,,0
853936626,뉴페이스스튜디오 성신점,studio,서울 성북구 동선동1가 79,0503-7150-7974,http://place.map.kakao.com/853936626,37.5911100634496,127.018582870826,"문화,예술 > 사진 > 사진관,포토스튜디오","{""모던"",""로맨틱""}",성북구,100,300,뉴페이스스튜디오 성신점은 다양한 스타일의 결혼사진을 제공하는 포토스튜디오입니다.,,0
38745166,치즈스마일스튜디오,studio,서울 종로구 계동 115-1,070-4789-0077,http://place.map.kakao.com/38745166,37.57942218648863,126.98663560232104,"문화,예술 > 사진 > 사진관,포토스튜디오","{""내추럴"",""로맨틱""}",종로구,100,300,아름다운 순간을 담는 포토 스튜디오,,0
506535429,센텐스스튜디오,studio,서울 성동구 상왕십리동 816-1,,http://place.map.kakao.com/506535429,37.56536393352581,127.02470901866543,"문화,예술 > 사진 > 사진관,포토스튜디오","{""모던"",""내추럴"",""클래식""}",성동구,100,300,전문적인 사진 촬영을 제공하는 포토 스튜디오,,0
1191715386,레이어스튜디오 7,studio,서울 용산구 갈월동 7-7,070-4203-7722,http://place.map.kakao.com/1191715386,37.5480012668663,126.973243953245,"서비스,산업 > 전문대행 > 공간대여","{""모던"",""내추럴"",""클래식""}",용산구,200,1000,레이어스튜디오 7은 다양한 스타일의 공간대여 서비스를 제공하는 전문 웨딩 업체입니다.,,0
817758921,스튜디오피플,studio,서울 마포구 동교동 147-7,010-2996-6294,http://place.map.kakao.com/817758921,37.5587362468769,126.92588177856163,"문화,예술 > 사진 > 사진관,포토스튜디오","{""모던"",""내추럴"",""로맨틱""}",마포구,100,300,스튜디오피플은 다양한 스타일의 사진 촬영을 전문으로 하는 포토스튜디오입니다.,,0
22483756,사랑비스튜디오,studio,서울 서대문구 연희동 132-13,02-714-3637,http://place.map.kakao.com/22483756,37.57381963667373,126.93473274519803,"문화,예술 > 사진 > 사진관,포토스튜디오","{""모던"",""로맨틱""}",서대문구,100,300,사랑으로 가득한 순간들을 아름답게 담아내는 포토스튜디오,,0
1637224246,모이다스튜디오,studio,서울 서대문구 홍은동 9-46,010-2867-5245,http://place.map.kakao.com/1637224246,37.6007195527876,126.949140799245,"문화,예술 > 사진 > 사진관,포토스튜디오","{""모던"",""클래식"",""로맨틱""}",서대문구,100,300,고급스러운 사진 촬영을 제공하는 포토스튜디오,,0
449051266,지지배배 스튜디오,studio,서울 종로구 통인동 147-7,,http://place.map.kakao.com/449051266,37.57904370499617,126.97115772695835,"문화,예술 > 사진 > 사진관,포토스튜디오","{""모던"",""내추럴"",""로맨틱""}",종로구,100,300,다양한 스타일의 웨딩 촬영을 전문으로 하는 포토 스튜디오입니다.,,0
1366691489,키스튜디오,studio,서울 서대문구 연희동 73-16,02-518-0233,http://place.map.kakao.com/1366691489,37.5733012822673,126.937541698333,"문화,예술 > 사진 > 사진관,포토스튜디오","{""모던"",""로맨틱""}",서대문구,100,300,키스튜디오는 현대적이고 로맨틱한 느낌의 웨딩 사진을 전문으로 하는 사진관입니다.,,0
150806232,릿지스튜디오,studio,서울 서대문구 영천동 326,,http://place.map.kakao.com/150806232,37.5702257696818,126.961966239992,"문화,예술 > 사진 > 사진관,포토스튜디오","{""모던"",""내추럴"",""클래식"",""로맨틱""}",서대문구,100,300,다양한 스타일의 웨딩 사진을 제공하는 전문 포토 스튜디오,,0
596428102,스튜디오 모즈비,studio,서울 중구 충무로3가 56-19,010-2918-5354,http://place.map.kakao.com/596428102,37.5627632675402,126.99196730138,"문화,예술 > 사진 > 사진관,포토스튜디오 > 대여사진관",{},중구,100,300,스튜디오 모즈비는 전문 사진 촬영을 제공하는 대여사진관입니다.,,0
12153140,원파인데이,studio,서울 강남구 압구정동 379,02-515-7363,http://place.map.kakao.com/12153140,37.52897901922851,127.01919533663803,"가정,생활 > 결혼 > 웨딩스튜디오","{""모던"",""내추럴"",""클래식"",""럭셔리""}",강남구,100,300,원스탑 웨딩 서비스를 제공하는 프리미엄 웨딩 스튜디오.,,0
7960931,스튜디오아이리스,studio,서울 용산구 한남동 29-6,,http://place.map.kakao.com/7960931,37.5346510939248,127.009562755497,"가정,생활 > 결혼 > 웨딩스튜디오","{""모던"",""내추럴""}",용산구,100,300,디자인과 자연을 담은 웨딩 촬영 전문 스튜디오,,0
15190187,올제스튜디오,studio,서울 서초구 방배동 751-1,02-3453-2003,http://place.map.kakao.com/15190187,37.4981328910749,126.98531002398674,"가정,생활 > 결혼 > 웨딩스튜디오","{""모던"",""클래식"",""로맨틱""}",서초구,100,300,웨딩 촬영을 전문으로 하는 고급스러운 스튜디오.,,0
11421281,소울스토리,studio,서울 용산구 주성동 43-15,070-8249-9366,http://place.map.kakao.com/11421281,37.5225888598956,126.998479617369,"가정,생활 > 결혼 > 웨딩스튜디오",{},용산구,100,300,모던하고 내추럴한 웨딩 촬영을 제공하는 스튜디오입니다.,,0
13115309,스튜디오포토웨어,studio,서울 영등포구 여의도동 45-13,02-782-5456,http://place.map.kakao.com/13115309,37.5201383286381,126.928838470122,"가정,생활 > 결혼 > 웨딩스튜디오","{""모던"",""내추럴"",""클래식""}",영등포구,100,300,다양한 스타일의 웨딩 촬영을 제공하는 전문 웨딩 스튜디오,,0
10683881,예존,studio,서울 서초구 방배동 764-2,02-545-0334,http://place.map.kakao.com/10683881,37.496374780455845,126.98344334899389,"가정,생활 > 결혼 > 웨딩스튜디오","{""모던"",""로맨틱""}",서초구,100,300,예존은 세련되고 로맨틱한 웨딩 촬영을 전문으로 하는 웨딩 스튜디오입니다.,,0
743869236,베일즈스튜디오,studio,서울 양천구 신정동 904-5,010-2541-9045,http://place.map.kakao.com/743869236,37.5264963541734,126.860696761749,"가정,생활 > 결혼 > 웨딩스튜디오","{""모던"",""로맨틱""}",양천구,100,300,베일즈스튜디오는 세련된 현대적인 감각과 로맨틱한 분위기를 자랑하는 웨딩스튜디오입니다.,,0
7789440,보띠데일리웨딩,studio,서울 강서구 등촌동 672-1,02-3665-9455,http://place.map.kakao.com/7789440,37.55859174290242,126.84074712820647,"가정,생활 > 결혼 > 웨딩스튜디오",{},강서구,,,웨딩스튜디오 전문업체로 다양한 스타일의 촬영 제공,,0
1078952537,하이라이트 필름,studio,서울 강서구 방화동 320-5,010-3477-7221,http://place.map.kakao.com/1078952537,37.5771330756357,126.816385331015,"가정,생활 > 결혼 > 웨딩스튜디오","{""모던"",""내추럴"",""로맨틱""}",강서구,100,300,하이라이트 필름은 다양한 스타일의 웨딩 필름 제작을 전문으로 하는 스튜디오입니다.,,0
2147183474,리브드포토그라피,studio,서울 강서구 마곡동 776-2,010-7799-7709,http://place.map.kakao.com/2147183474,37.568266109683606,126.84035978929677,"가정,생활 > 결혼 > 웨딩스튜디오","{""모던"",""로맨틱""}",강서구,100,300,리브드포토그라피는 모던하고 로맨틱한 웨딩 촬영을 전문으로 하는 스튜디오입니다.,,0
1516226254,진태용스냅,studio,서울 강서구 마곡동 797-1,02-3443-5326,http://place.map.kakao.com/1516226254,37.559313992459614,126.83523942831489,"가정,생활 > 결혼 > 웨딩스튜디오","{""모던"",""내추럴"",""로맨틱""}",강서구,100,300,고객의 소중한 순간을 담아내는 전문 웨딩 스튜디오,,0
1724465207,Room335snap,studio,서울 강서구 마곡동 800-15,010-6448-7297,http://place.map.kakao.com/1724465207,37.5579650319901,126.830662123677,"가정,생활 > 결혼 > 웨딩스튜디오","{""모던"",""내추럴"",""클래식""}",강서구,100,300,Room335snap은 현대적인 감각과 내추럴한 분위기를 결합한 웨딩 스튜디오입니다.,,0
27292156,아몬스튜디오,studio,서울 강서구 등촌동 678-14,02-2657-2152,http://place.map.kakao.com/27292156,37.5601954397581,126.839360650139,"가정,생활 > 결혼 > 웨딩스튜디오","{""모던"",""내추럴"",""로맨틱""}",강서구,100,300,아몬스튜디오는 다양한 스타일의 웨딩 사진을 제공하는 전문 웨딩 스튜디오입니다.,,0
128242049,레쥬르스냅,studio,서울 양천구 목동 925,010-5104-6362,http://place.map.kakao.com/128242049,37.5292499767871,126.867092744813,"가정,생활 > 결혼 > 웨딩스튜디오","{""모던"",""내추럴""}",양천구,100,300,고급스러운 웨딩촬영을 전문으로 하는 스튜디오입니다.,,0
1691802318,루미하루,studio,서울 양천구 신정동 903-15,010-5154-7600,http://place.map.kakao.com/1691802318,37.5260636618422,126.861282442583,"가정,생활 > 결혼 > 웨딩스튜디오","{""모던"",""내추럴"",""로맨틱""}",양천구,100,300,자연광을 활용한 세련된 촬영을 제공하는 웨딩 스튜디오.,,0
1392998475,데이오브,studio,서울 강서구 내발산동 651-11,0507-1344-6440,http://place.map.kakao.com/1392998475,37.5572386606949,126.841576192329,"가정,생활 > 결혼 > 웨딩스튜디오","{""모던"",""로맨틱""}",강서구,100,300,데이오브는 모던하고 로맨틱한 웨딩 스튜디오입니다.,,0
8500156,에이원스튜디오,studio,서울 양천구 목동 405-284,02-2646-3060,http://place.map.kakao.com/8500156,37.52445502036346,126.87382209393571,"문화,예술 > 사진 > 사진관,포토스튜디오","{""모던"",""로맨틱""}",양천구,100,300,에이원스튜디오는 다양한 스타일의 웨딩 촬영을 전문으로 하는 포토 스튜디오입니다.,,0
2003762385,담다스튜디오,studio,서울 양천구 신정동 945-3,02-2649-7979,http://place.map.kakao.com/2003762385,37.52430732964071,126.85286118567124,"문화,예술 > 사진 > 사진관,포토스튜디오","{""모던"",""로맨틱""}",양천구,100,300,담다스튜디오는 감각적인 촬영으로 각자의 이야기를 담는 포토스튜디오입니다.,,0
862169345,스튜디오서앤수,studio,서울 양천구 목동 315-23,02-2647-1210,http://place.map.kakao.com/862169345,37.5414551242161,126.868883779634,"문화,예술 > 사진 > 사진관,포토스튜디오","{""모던"",""로맨틱""}",양천구,100,300,스튜디오서앤수는 모던하고 로맨틱한 사진 촬영을 전문으로 하는 포토스튜디오입니다.,,0
27423200,멋진날스튜디오,studio,서울 양천구 신정동 1022-9,010-7127-0143,http://place.map.kakao.com/27423200,37.51986890798564,126.85944893215213,"문화,예술 > 사진 > 사진관,포토스튜디오","{""모던"",""로맨틱""}",양천구,100,300,소중한 순간을 담아주는 전문 사진관,,0
166678085,수록스튜디오,studio,서울 강서구 마곡동 771-3,010-6464-0423,http://place.map.kakao.com/166678085,37.5609483085013,126.828842203558,"문화,예술 > 사진 > 사진관,포토스튜디오 > 대여사진관","{""모던"",""로맨틱""}",강서구,100,300,현대적이고 로맨틱한 사진을 제공하는 대여사진관,,0
323852134,판나코타 스튜디오,studio,서울 강서구 마곡동 800-15,0503-7150-2669,http://place.map.kakao.com/323852134,37.5579650319901,126.830662123677,"문화,예술 > 사진 > 사진관,포토스튜디오 > 대여사진관","{""모던"",""내추럴"",""클래식""}",강서구,100,300,판나코타 스튜디오는 다양한 스타일의 웨딩사진을 전문으로 하는 대여사진관입니다.,,0
73816520,스튜디오시선,studio,서울 강서구 마곡동 795-6,070-7766-9989,http://place.map.kakao.com/73816520,37.5601718854039,126.837292895024,"문화,예술 > 사진 > 사진관,포토스튜디오","{""모던"",""내추럴"",""클래식""}",강서구,100,300,스튜디오시선은 모던하고 내추럴한 스타일의 웨딩 촬영을 전문으로 하는 포토스튜디오입니다.,,0
1616232508,보이니포토스튜디오,studio,서울 양천구 신정동 1029-41,0507-1427-1591,http://place.map.kakao.com/1616232508,37.5207235275765,126.854626120613,"문화,예술 > 사진 > 사진관,포토스튜디오 > 대여사진관","{""모던"",""내추럴"",""로맨틱""}",양천구,100,300,보이니포토스튜디오는 다양한 스타일의 웨딩 촬영을 제공하는 대여 사진관입니다.,,0
569685449,스튜디오호랑이,studio,서울 마포구 망원동 405-17,,http://place.map.kakao.com/569685449,37.5546410652246,126.903260466977,"문화,예술 > 사진 > 사진관,포토스튜디오","{""모던"",""내추럴"",""클래식""}",마포구,100,300,스튜디오호랑이는 다양한 스타일의 포토 서비스를 제공하는 사진관입니다.,,0
518040615,청사진관,studio,서울 양천구 신정동 1183-14,0507-1319-2220,http://place.map.kakao.com/518040615,37.518919658912885,126.85311949394807,"문화,예술 > 사진 > 사진관,포토스튜디오","{""모던"",""로맨틱""}",양천구,100,300,청사진관은 감성적인 분위기의 포토스튜디오로 다양한 스타일의 웨딩 촬영을 제공합니다.,,0
1977268692,그해 사진관,studio,서울 강서구 화곡동 1075-37,010-8514-6865,http://place.map.kakao.com/1977268692,37.54078808706696,126.84078952880753,"문화,예술 > 사진 > 사진관,포토스튜디오","{""모던"",""클래식"",""로맨틱""}",강서구,100,300,다양한 스타일의 웨딩 촬영을 제공하는 전문 사진관,,0
1939353338,셀프서쪽,studio,서울 강서구 내발산동 706-5,02-3662-7065,http://place.map.kakao.com/1939353338,37.5508697210976,126.839064933237,"문화,예술 > 사진 > 사진관,포토스튜디오 > 대여사진관","{""모던"",""클래식"",""로맨틱""}",강서구,100,300,셀프서쪽은 각종 촬영과 대여 사진관 서비스를 제공하는 업체입니다.,,0
1444051248,파라다이스베이,studio,서울 마포구 망원동 396-13,02-336-7737,http://place.map.kakao.com/1444051248,37.5529283610361,126.904480384736,"문화,예술 > 사진 > 사진관,포토스튜디오","{""모던"",""로맨틱""}",마포구,100,300,파라다이스베이는 현대적인 감각과 로맨틱한 분위기로 특별한 순간을 담아내는 포토스튜디오입니다.,,0
16764673,동행,studio,서울 강서구 화곡동 898-1,0502-5552-3125,http://place.map.kakao.com/16764673,37.5303720042809,126.847212869516,"문화,예술 > 사진 > 사진관,포토스튜디오","{""모던"",""로맨틱""}",강서구,100,300,"서울 강서구에 위치한 사진관, 포토스튜디오입니다.",,0
828321040,언제나리즈 셀프사진관,studio,서울 강서구 마곡동 797-1,010-3032-1886,http://place.map.kakao.com/828321040,37.5593049430386,126.835211153473,"문화,예술 > 사진 > 사진관,포토스튜디오 > 대여사진관","{""모던"",""내추럴""}",강서구,100,300,언제나리즈 셀프사진관은 다양한 스타일의 셀프사진 촬영을 제공하는 대여사진관입니다.,,0
1919798936,리프레쉬샷,studio,서울 강서구 화곡동 1068-23,010-2046-1874,http://place.map.kakao.com/1919798936,37.5404442127918,126.835104444332,"문화,예술 > 사진 > 사진관,포토스튜디오","{""모던"",""로맨틱""}",강서구,100,300,리프레쉬샷은 모던하고 로맨틱한 분위기의 웨딩 촬영을 전문으로 하는 포토스튜디오입니다.,,0
32408331,쇼티필름,studio,서울 영등포구 당산동4가 92-4,,http://place.map.kakao.com/32408331,37.5287129793178,126.895815876246,"문화,예술 > 사진 > 사진관,포토스튜디오","{""내추럴"",""클래식""}",영등포구,100,300,쇼티필름은 다양한 스타일의 웨딩 사진 촬영을 전문으로 하는 포토스튜디오입니다.,,0
239413768,문래동흑백상사,studio,서울 영등포구 문래동6가 19,070-4354-1470,http://place.map.kakao.com/239413768,37.5178451921904,126.887101787602,"문화,예술 > 사진 > 사진관,포토스튜디오","{""모던"",""클래식""}",영등포구,100,300,문래동의 세련된 사진관으로 다양한 스타일의 촬영 서비스를 제공합니다.,,0
26538988,권영기포토그라피,studio,서울 마포구 망원동 462-5,02-512-3994,http://place.map.kakao.com/26538988,37.554844754521916,126.89903208266473,"문화,예술 > 사진 > 사진관,포토스튜디오","{""모던"",""내추럴"",""클래식"",""로맨틱""}",마포구,100,300,권영기포토그라피는 다양한 스타일의 웨딩 사진 촬영을 전문으로 하는 포토 스튜디오입니다.,,0
1867575641,헤이주드스튜디오,studio,서울 구로구 고척동 193-26,,http://place.map.kakao.com/1867575641,37.50559415066827,126.85931509896518,"가정,생활 > 결혼 > 웨딩스튜디오","{""모던"",""내추럴""}",구로구,100,300,헤이주드스튜디오는 모던하고 내추럴한 웨딩 촬영을 전문으로 하는 스튜디오입니다.,,0
1805572918,스튜디오채널,studio,서울 동작구 신대방동 361-39,0507-1494-2430,http://place.map.kakao.com/1805572918,37.4981306929798,126.923552196679,"가정,생활 > 결혼 > 웨딩스튜디오","{""모던"",""내추럴"",""클래식""}",동작구,100,300,"신대방동에 위치한 웨딩스튜디오로, 모던하고 내추럴한 스타일의 촬영을 제공합니다.",,0
756551044,감성스토리 스튜디오,studio,서울 구로구 구로동 86-5,010-3366-8883,http://place.map.kakao.com/756551044,37.4941716072609,126.8893391152,"가정,생활 > 결혼 > 웨딩스튜디오","{""로맨틱"",""내추럴""}",구로구,100,300,감성적이고 자연스러운 웨딩 촬영을 제공하는 스튜디오,,0
383274771,감성필름,studio,서울 구로구 구로동 3-25,02-2111-7357,http://place.map.kakao.com/383274771,37.5070442017817,126.8902271799,"가정,생활 > 결혼 > 웨딩스튜디오","{""내추럴"",""로맨틱""}",구로구,100,300,감성적이고 자연스러운 웨딩 촬영을 전문으로 하는 스튜디오입니다.,,0
1050475886,스카이미디어필름,studio,서울 구로구 구로동 501,,http://place.map.kakao.com/1050475886,37.4999888817737,126.884096746679,"가정,생활 > 결혼 > 웨딩스튜디오","{""모던"",""내추럴"",""클래식""}",구로구,100,300,스카이미디어필름은 다양한 스타일의 웨딩 촬영을 제공하는 전문 웨딩 스튜디오입니다.,,0
593695587,찬란한나스튜디오,studio,서울 영등포구 도림동 192-1,,http://place.map.kakao.com/593695587,37.5110198451797,126.898758613472,"가정,생활 > 결혼 > 웨딩스튜디오","{""모던"",""내추럴"",""클래식""}",영등포구,100,300,다양한 스타일의 웨딩 촬영을 전문으로 하는 스튜디오,,0
14573934,에스뜨레아,studio,서울 구로구 구로동 3-25,,http://place.map.kakao.com/14573934,37.5069758116716,126.890320022116,"가정,생활 > 결혼 > 웨딩스튜디오","{""모던"",""내추럴"",""클래식""}",구로구,100,300,에스뜨레아는 현대적이고 자연스러운 웨딩 촬영 스타일을 제공하는 웨딩스튜디오입니다.,,0
8422104,아이모카,studio,서울 구로구 구로동 1278-1,,http://place.map.kakao.com/8422104,37.4863508749655,126.891290915863,"가정,생활 > 결혼 > 웨딩스튜디오","{""모던"",""로맨틱""}",구로구,100,300,아이모카는 다양한 스타일의 웨딩 촬영을 제공하는 전문 웨딩 스튜디오입니다.,,0
123273741,포토매틱 스튜디오,studio,서울 강남구 신사동 523-28,010-6476-2018,http://place.map.kakao.com/123273741,37.521506700066375,127.02100224410961,"문화,예술 > 사진 > 사진관,포토스튜디오","{""모던"",""내추럴"",""로맨틱""}",강남구,100,300,포토매틱 스튜디오는 다양한 스타일의 사진 촬영을 전문으로 하는 포토스튜디오입니다.,,0
24267560,씨엔스튜디오,studio,서울 강남구 신사동 600-14,02-544-4642,http://place.map.kakao.com/24267560,37.5237493273987,127.029313068824,"문화,예술 > 사진 > 사진관,포토스튜디오","{""모던"",""로맨틱""}",강남구,100,300,모던하고 로맨틱한 분위기의 사진을 제공하는 스튜디오,,0
1369947106,오디티모드 한남점,studio,서울 용산구 한남동 729-8,070-8691-2993,http://place.map.kakao.com/1369947106,37.5381302099752,127.002845651616,"문화,예술 > 사진 > 사진관,포토스튜디오","{""모던"",""내추럴"",""클래식"",""로맨틱""}",용산구,100,300,오디티모드 한남점은 다양한 스타일의 웨딩 사진을 제공하는 포토스튜디오입니다.,,0
1880218436,커즈스튜디오 강남점,studio,서울 강남구 신사동 628-26,,http://place.map.kakao.com/1880218436,37.522312179338,127.032918876905,"문화,예술 > 사진 > 사진관,포토스튜디오","{""모던"",""로맨틱""}",강남구,100,300,서울 강남구에 위치한 포토스튜디오 전문 업체,,0
12442774,스튜디오페레,studio,서울 강남구 논현동 10-33,02-3446-7667,http://place.map.kakao.com/12442774,37.51762766447605,127.02655629426141,"문화,예술 > 사진 > 사진관,포토스튜디오","{""모던"",""내추럴"",""클래식"",""로맨틱""}",강남구,100,300,다양한 스타일의 웨딩 촬영을 전문으로 하는 포토스튜디오,,0
1586482771,비마이스튜디오,studio,서울 강남구 역삼동 771-10,02-562-7710,http://place.map.kakao.com/1586482771,37.4974140779343,127.043289213193,"문화,예술 > 사진 > 사진관,포토스튜디오","{""모던"",""로맨틱""}",강남구,100,300,비마이스튜디오는 현대적인 감각의 로맨틱한 웨딩 사진을 전문으로 하는 포토스튜디오입니다.,,0
1386960710,모노그램스튜디오,studio,서울 강남구 논현동 243-17,02-517-8988,http://place.map.kakao.com/1386960710,37.5153885320525,127.039866619035,"문화,예술 > 사진 > 사진관,포토스튜디오","{""모던"",""로맨틱""}",강남구,100,300,모노그램스튜디오에서는 다양한 스타일의 웨딩 촬영 서비스를 제공합니다.,,0
1863324753,아르센 스튜디오,studio,서울 강남구 신사동 656-24,,http://place.map.kakao.com/1863324753,37.5253022448625,127.037173795953,"문화,예술 > 사진 > 사진관,포토스튜디오","{""모던"",""내추럴"",""클래식"",""로맨틱""}",강남구,100,300,아르센 스튜디오는 다양한 스타일의 웨딩 촬영을 전문으로 하는 포토스튜디오입니다.,,0
27292753,테라스,studio,서울 강남구 논현동 110-22,02-549-8541,http://place.map.kakao.com/27292753,37.518304252321,127.039649853908,"문화,예술 > 사진 > 사진관,포토스튜디오","{""모던"",""내추럴"",""로맨틱""}",강남구,100,300,고급스러운 분위기와 자연스러운 촬영 스타일을 제공하는 포토스튜디오입니다.,,0
1745122183,사랑이야기스튜디오 홍대점,studio,서울 마포구 서교동 464-60,02-338-3706,http://place.map.kakao.com/1745122183,37.5549674634743,126.917845729398,"문화,예술 > 사진 > 사진관,포토스튜디오","{""모던"",""로맨틱""}",마포구,100,300,사랑이야기스튜디오 홍대점은 다양한 스타일의 웨딩 촬영을 제공하는 포토스튜디오입니다.,,0
2018080426,연남동 흑백사진관,studio,서울 마포구 연남동 567-31,02-332-7095,http://place.map.kakao.com/2018080426,37.5603623003085,126.922688470205,"문화,예술 > 사진 > 사진관,포토스튜디오","{""모던"",""클래식"",""로맨틱""}",마포구,100,300,연남동의 독특한 흑백사진관에서 감성적인 웨딩 사진 촬영을 제공합니다.,,0
48284523,플린스튜디오,studio,서울 마포구 서교동 381-1,02-335-1441,http://place.map.kakao.com/48284523,37.55345991885121,126.91505094562464,"문화,예술 > 사진 > 사진관,포토스튜디오","{""모던"",""내추럴"",""로맨틱""}",마포구,100,300,플린스튜디오는 감각적인 사진을 통해 특별한 순간을 담아내는 포토스튜디오입니다.,,0
100170676,아뜰리에포유,studio,서울 마포구 서교동 482-8,010-2594-8381,http://place.map.kakao.com/100170676,37.55361450255717,126.91576713977591,"문화,예술 > 사진 > 사진관,포토스튜디오","{""내추럴"",""로맨틱""}",마포구,100,300,자연스러운 분위기의 감성적인 웨딩 사진 촬영 전문 스튜디오,,0
1624683653,베이비로엘,studio,서울 마포구 신수동 63-14,02-704-6314,http://place.map.kakao.com/1624683653,37.552506438645715,126.93783066150027,"문화,예술 > 사진 > 사진관,포토스튜디오","{""모던"",""클래식"",""로맨틱""}",마포구,100,300,딱 맞는 스타일로 특별한 순간을 기억하는 포토스튜디오,,0
1998585363,더메인스튜디오,studio,서울 마포구 성산동 260-4,02-6952-7633,http://place.map.kakao.com/1998585363,37.5601021436935,126.906789161119,"문화,예술 > 사진 > 사진관,포토스튜디오","{""모던"",""내추럴""}",마포구,100,300,현대적이고 자연스러운 분위기의 사진을 전문으로 하는 포토스튜디오,,0
830697570,룩포메이션,studio,서울 서대문구 연희동 446-153,,http://place.map.kakao.com/830697570,37.56812208340791,126.91925524550477,"문화,예술 > 사진 > 사진관,포토스튜디오","{""모던"",""로맨틱""}",서대문구,100,300,룩포메이션은 자연스러운 스타일과 우아함을 강조하는 전문 사진 스튜디오입니다.,,0
1840681300,아워오운아워,studio,서울 서대문구 창천동 72-14,070-8098-7093,http://place.map.kakao.com/1840681300,37.5563185806091,126.934535243804,"문화,예술 > 사진 > 사진관,포토스튜디오","{""모던"",""내추럴"",""클래식""}",서대문구,100,300,"사진을 전문으로 하는 포토스튜디오로, 다양한 스타일을 제공합니다.",,0
1414460973,수와선스튜디오,studio,서울 서대문구 연희동 193-7,070-7773-6632,http://place.map.kakao.com/1414460973,37.565409107721244,126.92894483729759,"문화,예술 > 사진 > 사진관,포토스튜디오","{""모던"",""내추럴""}",서대문구,100,300,수와선스튜디오는 다양한 촬영 스타일을 제공하는 전문 사진관입니다.,,0
8597078,가족이야기스튜디오,studio,서울 은평구 녹번동 162-25,02-355-2714,http://place.map.kakao.com/8597078,37.60375007338355,126.92198449617915,"문화,예술 > 사진 > 사진관,포토스튜디오","{""모던"",""내추럴"",""로맨틱""}",은평구,100,300,가족의 특별한 순간을 담아주는 포토스튜디오,,0
2004787756,너구리사진관,studio,서울 마포구 합정동 198-49,010-8458-2656,http://place.map.kakao.com/2004787756,37.54550338821529,126.91406191886969,"문화,예술 > 사진 > 사진관,포토스튜디오","{""모던"",""내추럴"",""로맨틱""}",마포구,100,300,너구리사진관은 다양한 촬영 스타일을 제공하는 포토스튜디오입니다.,,0
1296866678,벨미누스튜디오,studio,서울 마포구 서교동 457-19,,http://place.map.kakao.com/1296866678,37.557319092464,126.914084567466,"문화,예술 > 사진 > 사진관,포토스튜디오","{""모던"",""내추럴""}",마포구,100,300,벨미누스튜디오는 현대적인 감각과 자연스러운 분위기를 강조하는 사진 스튜디오입니다.,,0
8504117,엘림스튜디오,studio,서울 영등포구 여의도동 13-5,02-780-3508,http://place.map.kakao.com/8504117,37.52996768468509,126.92220848300796,"문화,예술 > 사진 > 사진관,포토스튜디오",{},영등포구,100,300,프로페셔널한 웨딩 사진 서비스를 제공하는 포토스튜디오,,0
969113371,도어스튜디오,studio,서울 서대문구 연희동 192-10,010-2305-0461,http://place.map.kakao.com/969113371,37.5661647447835,126.928450613128,"문화,예술 > 사진 > 사진관,포토스튜디오 > 대여사진관","{""모던"",""내추럴""}",서대문구,100,300,도어스튜디오는 다양한 스타일의 사진을 제공하는 대여사진관입니다.,,0
1721656556,드마레,studio,서울 서대문구 대현동 27-20,010-5324-2023,http://place.map.kakao.com/1721656556,37.5580664860614,126.943178197083,"문화,예술 > 사진 > 사진관,포토스튜디오","{""모던"",""내추럴"",""로맨틱""}",서대문구,100,300,드마레는 고급스러운 사진 촬영을 제공하는 포토스튜디오입니다.,,0
725439040,7페이지사진관,studio,서울 마포구 연남동 260-14,070-4115-0220,http://place.map.kakao.com/725439040,37.5615168656722,126.924683816725,"문화,예술 > 사진 > 사진관,포토스튜디오","{""모던"",""내추럴"",""클래식""}",마포구,100,300,7페이지사진관은 다양한 스타일과 감성을 담아내는 사진관입니다.,,0
1860489063,에이투스튜디오,studio,서울 마포구 동교동 175-19,0502-5552-5661,http://place.map.kakao.com/1860489063,37.55767716497932,126.92813278053403,"문화,예술 > 사진 > 사진관,포토스튜디오","{""모던"",""내추럴"",""로맨틱""}",마포구,100,300,세련된 스타일의 사진을 제공하는 포토스튜디오.,,0
1575590493,스튜디오린다,studio,서울 마포구 성산동 275-1,02-337-8233,http://place.map.kakao.com/1575590493,37.56384182324487,126.90748172783738,"문화,예술 > 사진 > 사진관,포토스튜디오","{""모던"",""로맨틱""}",마포구,100,300,스튜디오린다는 자연광을 활용한 감성적인 웨딩 사진 전문 포토스튜디오입니다.,,0
650044313,코우스튜디오,studio,서울 마포구 상수동 330-16,,http://place.map.kakao.com/650044313,37.5470064118149,126.92345817849,"문화,예술 > 사진 > 사진관,포토스튜디오",{},마포구,100,300,코우스튜디오는 다양한 스타일의 웨딩 촬영을 전문으로 하는 포토스튜디오입니다.,,0
319444957,탠저린스튜디오,studio,서울 마포구 상수동 309-5,,http://place.map.kakao.com/319444957,37.5479525404002,126.923581689262,"문화,예술 > 사진 > 사진관,포토스튜디오","{""모던"",""내추럴"",""로맨틱""}",마포구,100,300,탠저린스튜디오에서는 자연스러운 모던 스타일의 웨딩 사진 촬영을 제공합니다.,,0
2035961468,제이비드스냅,studio,서울 마포구 동교동 204-17,,http://place.map.kakao.com/2035961468,37.5588309459284,126.92183668694,"문화,예술 > 사진 > 사진관,포토스튜디오","{""내추럴"",""로맨틱""}",마포구,100,300,"예쁜 순간을 담는 사진관으로, 모던하고 자연스러운 스타일의 촬영을 제공합니다.",,0
268932886,사실은대단한사진관,studio,서울 은평구 역촌동 36-4,,http://place.map.kakao.com/268932886,37.602354946379016,126.91615386903725,"문화,예술 > 사진 > 사진관,포토스튜디오","{""모던"",""내추럴"",""클래식""}",은평구,100,300,다양한 스타일의 웨딩 사진을 전문으로 하는 사진관,,0
1908377416,레코무드스튜디오,studio,서울 마포구 서교동 364-10,,http://place.map.kakao.com/1908377416,37.5516979379454,126.922122529188,"문화,예술 > 사진 > 사진관,포토스튜디오","{""모던"",""내추럴"",""로맨틱""}",마포구,100,300,레코무드스튜디오는 감각적인 모던 사진을 추구하는 포토스튜디오입니다.,,0
599456914,스마일타임,studio,서울 송파구 신천동 17-4,02-413-7887,http://place.map.kakao.com/599456914,37.5207982460243,127.104559991547,"문화,예술 > 사진 > 사진관,포토스튜디오","{""모던"",""내추럴"",""로맨틱""}",송파구,100,300,스마일타임은 자연스럽고 로맨틱한 분위기에서 특별한 순간을 담아주는 포토스튜디오입니다.,,0
275947169,오늘을남기다,studio,서울 송파구 문정동 53-1,0502-5552-8203,http://place.map.kakao.com/275947169,37.4877553472276,127.122711582885,"문화,예술 > 사진 > 사진관,포토스튜디오","{""모던"",""로맨틱""}",송파구,100,300,전문 사진 촬영으로 특별한 순간을 남기는 포토스튜디오,,0
95317780,강동구사진관리더스사진관,studio,서울 강동구 길동 367-6,02-474-7979,http://place.map.kakao.com/95317780,37.538911186483006,127.1401093169295,"문화,예술 > 사진 > 사진관,포토스튜디오","{""모던"",""내추럴"",""클래식""}",강동구,100,300,고품질의 스튜디오 사진 촬영 전문 업체,,0
1814843323,오드필름,studio,서울 송파구 문정동 40-7,070-7749-7749,http://place.map.kakao.com/1814843323,37.4881119950536,127.124577848149,"문화,예술 > 사진 > 사진관,포토스튜디오","{""모던"",""내추럴"",""로맨틱""}",송파구,100,300,오드필름은 다양한 스타일의 웨딩 사진을 전문으로 하는 포토스튜디오입니다.,,0
1020025240,강남가족사진관,studio,서울 강남구 삼성동 48-13,02-518-6255,http://place.map.kakao.com/1020025240,37.51321845019544,127.05050228717998,"문화,예술 > 사진 > 사진관,포토스튜디오","{""모던"",""내추럴"",""클래식"",""로맨틱""}",강남구,100,300,다양한 스타일의 웨딩 사진 촬영을 제공하는 전문 포토스튜디오.,,0
1130744295,구의동흑백사진관,studio,서울 광진구 구의동 251-13,010-3243-9435,http://place.map.kakao.com/1130744295,37.5417285791406,127.084162910274,"문화,예술 > 사진 > 사진관,포토스튜디오","{""클래식"",""로맨틱""}",광진구,100,300,구의동에 위치한 흑백 사진 전문 포토 스튜디오.,,0
258962725,셀프사진관 참새,studio,서울 강동구 천호동 410-238,070-7954-1925,http://place.map.kakao.com/258962725,37.5396944718339,127.127921190743,"문화,예술 > 사진 > 사진관,포토스튜디오 > 대여사진관","{""모던"",""내추럴""}",강동구,100,300,셀프사진관에서 자유롭게 추억을 담을 수 있는 사진관입니다.,,0
433796465,구백스튜디오앤다크룸,studio,서울 송파구 잠실동 316-6,010-9312-0609,http://place.map.kakao.com/433796465,37.50432503533722,127.08448959797913,"문화,예술 > 사진 > 사진관,포토스튜디오","{""모던"",""내추럴""}",송파구,100,300,구백스튜디오앤다크룸은 다양한 사진 스타일을 제공하는 포토스튜디오입니다.,,0
1787849441,달다포토,studio,서울 송파구 방이동 165-2,010-6421-5664,http://place.map.kakao.com/1787849441,37.5133538837687,127.122644896581,"문화,예술 > 사진 > 사진관,포토스튜디오","{""모던"",""내추럴"",""로맨틱""}",송파구,100,300,달다포토는 자연스러운 분위기와 로맨틱한 촬영 스타일로 기억에 남는 웨딩 순간을 남기는 사진관입니다.,,0
1820847977,스냅스타,studio,서울 강남구 삼성동 107-11,,http://place.map.kakao.com/1820847977,37.5146174776663,127.060575823281,"문화,예술 > 사진 > 사진관,포토스튜디오","{""모던"",""내추럴""}",강남구,100,300,스냅스타는 다양한 스튜디오 스타일로 전문적인 사진 서비스를 제공합니다.,,0
915950788,인재스튜디오,studio,서울 광진구 자양동 58-13,,http://place.map.kakao.com/915950788,37.5341540922736,127.065305082104,"문화,예술 > 사진 > 사진관,포토스튜디오","{""모던"",""내추럴"",""클래식"",""로맨틱""}",광진구,100,300,서울 광진구에 위치한 인재스튜디오에서 다양한 스타일의 웨딩 사진 촬영 서비스를 제공합니다.,,0
1813181459,포토그라운드,studio,서울 강남구 일원동 643-8,,http://place.map.kakao.com/1813181459,37.4922289197776,127.087119731387,"문화,예술 > 사진 > 사진관,포토스튜디오",{},강남구,100,300,모던하고 내추럴한 분위기를 자아내는 전문 사진관.,,0
257782503,블리블리스튜디오,studio,서울 송파구 가락동 188-8,,http://place.map.kakao.com/257782503,37.4942469494472,127.133648076999,"문화,예술 > 사진 > 사진관,포토스튜디오","{""모던"",""내추럴"",""클래식""}",송파구,100,300,블리블리스튜디오는 다양한 스타일의 웨딩 사진을 제공합니다.,,0
864526160,에덴스튜디오,studio,서울 강남구 청담동 73-3,02-517-7881,http://place.map.kakao.com/864526160,37.51995222268719,127.05525898444084,"문화,예술 > 사진 > 사진관,포토스튜디오","{""모던"",""내추럴"",""클래식"",""럭셔리""}",강남구,100,300,에덴스튜디오는 세련된 모던 감각과 자연스러운 분위기를 강조하여 높은 품질의 웨딩 사진을 제공합니다.,,0
954657326,러벤트스튜디오,studio,서울 송파구 송파동 48-7,02-423-4370,http://place.map.kakao.com/954657326,37.509767169632916,127.11155480716913,"문화,예술 > 사진 > 사진관,포토스튜디오","{""모던"",""내추럴"",""로맨틱""}",송파구,100,300,자연광을 활용한 감성적인 사진 촬영 전문 스튜디오,,0
1331506350,뷔에르 스튜디오,studio,서울 송파구 장지동 904-2,010-6277-3427,http://place.map.kakao.com/1331506350,37.4775715044575,127.13408642542,"문화,예술 > 사진 > 사진관,포토스튜디오 > 대여사진관","{""모던"",""클래식"",""로맨틱""}",송파구,100,300,뷔에르 스튜디오는 다양한 스타일의 사진을 제공하는 대여사진관입니다.,,0
793036091,감나무사진관,studio,서울 용산구 한강로2가 123-4,010-8387-5820,http://place.map.kakao.com/793036091,37.53071928187279,126.96990582815303,"문화,예술 > 사진 > 사진관,포토스튜디오","{""모던"",""내추럴""}",용산구,100,300,고유의 감성과 스타일로 특별한 순간을 담아주는 사진관,,0
290596099,어고,studio,서울 종로구 누상동 32-1,02-6338-2015,http://place.map.kakao.com/290596099,37.580428907584,126.96581249387319,"가정,생활 > 패션 > 보석,귀금속",{},종로구,,,어고는 고품질의 보석 및 귀금속을 전문으로 하는 웨딩 업체입니다.,,0
1275588962,경복궁사진관,studio,서울 종로구 통의동 47,070-7706-2890,http://place.map.kakao.com/1275588962,37.5766853105645,126.972880492138,"문화,예술 > 사진 > 사진관,포토스튜디오","{""모던"",""내추럴"",""클래식""}",종로구,100,300,전통과 현대가 어우러진 사진 촬영 전문 스튜디오,,0
209265984,고민사진관 충무로점,studio,서울 중구 충무로2가 51-18,,http://place.map.kakao.com/209265984,37.561644971381,126.989892781955,"문화,예술 > 사진 > 사진관,포토스튜디오",{},중구,100,300,전통과 현대를 아우르는 다채로운 사진 스타일을 제공하는 사진관,,0
1331177557,북촌사진관,studio,서울 종로구 안국동 17-1,,http://place.map.kakao.com/1331177557,37.578817164366086,126.98308661707406,"문화,예술 > 사진 > 사진관,포토스튜디오","{""클래식"",""로맨틱""}",종로구,100,300,전통과 현대가 어우러지는 개성 있는 웨딩 촬영 전문 스튜디오,,0
1725638473,늘봄사진관,studio,서울 중구 신당동 67-245,0507-1367-7952,http://place.map.kakao.com/1725638473,37.5633014837665,127.020350705866,"문화,예술 > 사진 > 사진관,포토스튜디오","{""모던"",""로맨틱""}",중구,100,300,프로페셔널한 웨딩 촬영을 전문으로 하는 사진관.,,0
837011640,이몽,studio,서울 용산구 동자동 43-153,,http://place.map.kakao.com/837011640,37.54946948787239,126.97150522452976,"문화,예술 > 사진 > 사진관,포토스튜디오","{""모던"",""로맨틱""}",용산구,100,300,"이몽은 모던하고 로맨틱한 분위기의 사진관으로, 특별한 순간을 아름답게 담아냅니다.",,0
1413186644,세진 학생회관점,studio,서울 성북구 안암동5가 1-2,070-4242-1815,http://place.map.kakao.com/1413186644,37.58692740374761,127.03229629073444,음식점 > 한식,"{""모던"",""내추럴""}",성북구,,,서울 성북구에 위치한 한식 전문 음식점입니다.,,0
6284647,나르트스튜디오,studio,서울 중구 신당동 374-6,010-2770-5970,http://place.map.kakao.com/6284647,37.5562569101103,127.011199756741,"문화,예술 > 사진 > 사진관,포토스튜디오","{""모던"",""로맨틱""}",중구,100,300,현대적인 감각과 로맨틱한 분위기로 특별한 순간을 만들어주는 사진관.,,0
2122917656,예담헌7,studio,서울 종로구 계동 124,,http://place.map.kakao.com/2122917656,37.579942097938805,126.98697514066338,"문화,예술 > 사진 > 사진관,포토스튜디오","{""모던"",""내추럴"",""클래식""}",종로구,100,300,예담헌7는 다양한 스타일의 웨딩 사진을 전문으로 하는 포토스튜디오입니다.,,0
1772043926,도본스튜디오,studio,서울 용산구 남영동 98-6,,http://place.map.kakao.com/1772043926,37.5421809327766,126.973782379976,"문화,예술 > 사진 > 사진관,포토스튜디오","{""모던"",""내추럴"",""클래식""}",용산구,100,300,도본스튜디오는 다양한 스타일의 웨딩 사진을 전문으로 하는 포토스튜디오입니다.,,0
1474131415,루루시아스튜디오,studio,서울 성북구 동소문동4가 205,010-6819-0927,http://place.map.kakao.com/1474131415,37.5933562092257,127.011792981783,"문화,예술 > 사진 > 사진관,포토스튜디오","{""모던"",""내추럴"",""로맨틱""}",성북구,100,300,개성 있는 사진 촬영을 전문으로 하는 포토스튜디오,,0
1742046042,제이유스튜디오,studio,서울 중구 신당동 828-1,02-3446-5887,http://place.map.kakao.com/1742046042,37.55449133238,127.006020745779,"문화,예술 > 사진 > 사진관,포토스튜디오","{""모던"",""내추럴"",""로맨틱""}",중구,100,300,제이유스튜디오는 세련된 사진과 자연스러운 스타일을 중시하는 포토스튜디오입니다.,,0
2010320959,로미브스튜디오,studio,서울 종로구 원서동 174,,http://place.map.kakao.com/2010320959,37.5788502470224,126.98845270532,"문화,예술 > 사진 > 사진관,포토스튜디오","{""모던"",""내추럴"",""클래식"",""로맨틱""}",종로구,100,300,로미브스튜디오는 다양한 스타일의 웨딩 사진을 제공하는 포토스튜디오입니다.,,0
12725333,명동사진관,studio,서울 마포구 신공덕동 167,02-712-3122,http://place.map.kakao.com/12725333,37.5434826887935,126.95286856823,"문화,예술 > 사진 > 사진관,포토스튜디오","{""클래식"",""로맨틱""}",마포구,100,300,명동사진관은 다양한 스타일의 웨딩 사진을 전문으로 하는 포토스튜디오입니다.,,0
1755742020,레코디즘스튜디오,studio,서울 성북구 안암동5가 102-86,010-4540-4072,http://place.map.kakao.com/1755742020,37.585009989589345,127.02922725197062,"문화,예술 > 사진 > 사진관,포토스튜디오","{""모던"",""내추럴"",""로맨틱""}",성북구,100,300,레코디즘스튜디오는 모던하고 내추럴한 스타일의 웨딩 촬영을 전문으로 하는 포토스튜디오입니다.,,0
27299449,무이스튜디오 유엔빌리지점,studio,서울 용산구 한남동 11-335,02-511-8902,http://place.map.kakao.com/27299449,37.532265088055574,127.01131835758176,"문화,예술 > 사진 > 사진관,포토스튜디오","{""모던"",""내추럴"",""로맨틱""}",용산구,100,300,"사진 촬영에 특화된 스튜디오로, 다양한 스타일로 맞춤 촬영 제공.",,0
1469464012,사진관 소회모먼트 용산점,studio,서울 용산구 한강로3가 40-605,0502-5551-9653,http://place.map.kakao.com/1469464012,37.52429844198483,126.96255293651548,"문화,예술 > 사진 > 사진관,포토스튜디오","{""모던"",""내추럴""}",용산구,100,300,사진촬영 전문 스튜디오로 다양한 스타일의 촬영을 제공합니다.,,0
2020183110,허그프레임,studio,서울 용산구 한남동 113-2,0502-5553-0687,http://place.map.kakao.com/2020183110,37.5309391272833,127.007358386105,"문화,예술 > 사진 > 사진관,포토스튜디오","{""모던"",""로맨틱""}",용산구,100,300,허그프레임은 자연스러운 순간을 담아내는 사진관입니다.,,0
30560885,스튜디오훈,studio,서울 영등포구 문래동3가 54-43,0502-5553-1246,http://place.map.kakao.com/30560885,37.5136989064513,126.89710924067276,"문화,예술 > 사진 > 사진관,포토스튜디오","{""모던"",""내추럴"",""클래식""}",영등포구,100,300,스튜디오훈은 다양한 스타일의 웨딩 사진을 전문으로 하는 포토스튜디오입니다.,,0
1219035103,292스튜디오,studio,서울 구로구 신도림동 292-45,,http://place.map.kakao.com/1219035103,37.509140787488,126.87822384433,"문화,예술 > 사진 > 사진관,포토스튜디오 > 대여사진관","{""모던"",""내추럴""}",구로구,100,300,292스튜디오는 현대적인 감각과 자연스러운 분위기를 세련되게 담아내는 사진관입니다.,,0
218808661,문래동사진관 모람모람,studio,서울 영등포구 문래동2가 60-2,010-2073-8946,http://place.map.kakao.com/218808661,37.514790399662346,126.89347006395006,"문화,예술 > 사진 > 사진관,포토스튜디오","{""모던"",""내추럴"",""클래식""}",영등포구,100,300,모던하고 자연스러운 촬영 스타일을 추구하는 사진관,,0
310497581,파노셀프사진관,studio,서울 영등포구 문래동3가 54-43,010-2136-0258,http://place.map.kakao.com/310497581,37.5137573207493,126.896936101677,"문화,예술 > 사진 > 사진관,포토스튜디오 > 대여사진관","{""모던"",""내추럴"",""클래식""}",영등포구,100,300,파노셀프사진관은 다양한 스타일의 사진을 제공하는 대여사진관입니다.,,0
9423915,중앙스튜디오,studio,서울 영등포구 신길동 114-1,02-844-1177,http://place.map.kakao.com/9423915,37.5118921107444,126.917404341629,"문화,예술 > 사진 > 사진관,포토스튜디오","{""모던"",""내추럴"",""클래식"",""로맨틱""}",영등포구,100,300,신길동에 위치한 다양한 스타일의 웨딩 사진 촬영 전문 스튜디오,,0
630901338,엔레이스스튜디오,studio,서울 영등포구 도림동 216-2,010-2068-0392,http://place.map.kakao.com/630901338,37.5090006367211,126.896611249723,"서비스,산업 > 전문대행 > 공간대여","{""모던"",""클래식"",""럭셔리""}",영등포구,200,1000,다양한 공간을 대여할 수 있는 전문 스튜디오,,0
556223567,아트씨스튜디오,studio,서울 관악구 신림동 517-3,02-841-9996,http://place.map.kakao.com/556223567,37.4871300141619,126.913967141132,"문화,예술 > 사진 > 사진관,포토스튜디오","{""모던"",""내추럴"",""클래식""}",관악구,100,300,현대적인 감각의 다양한 촬영 스타일을 제공하는 사진관.,,0
907279054,아투,studio,서울 동작구 노량진동 271-4,010-4759-1625,http://place.map.kakao.com/907279054,37.512453987173,126.935675251,"문화,예술 > 사진 > 사진관,포토스튜디오","{""모던"",""내추럴"",""클래식"",""로맨틱""}",동작구,100,300,아투는 다양한 스타일의 웨딩 사진을 제공합니다.,,0
12882780,베이비유 프리미엄청담점,studio,서울 강남구 청담동 81-6,02-512-7747,http://place.map.kakao.com/12882780,37.52578984356089,127.04453531157665,"문화,예술 > 사진 > 사진관,포토스튜디오","{""모던"",""프리미엄"",""럭셔리""}",강남구,100,300,프리미엄 사진 촬영 서비스 제공,,0
506446226,뮤아스튜디오,studio,서울 성동구 성수동1가 685-342,02-467-7111,http://place.map.kakao.com/506446226,37.5473128777986,127.039662950605,"문화,예술 > 사진 > 사진관,포토스튜디오","{""모던"",""내추럴"",""클래식"",""로맨틱""}",성동구,100,300,뮤아스튜디오는 다양한 스타일의 웨딩 사진을 제공하는 포토스튜디오입니다.,,0
27293350,메이든스튜디오,studio,서울 강남구 신사동 642-20,02-543-3755,http://place.map.kakao.com/27293350,37.52626391066386,127.03621946226336,"문화,예술 > 사진 > 사진관,포토스튜디오","{""모던"",""내추럴"",""클래식"",""럭셔리""}",강남구,100,300,메이든스튜디오는 다양한 스타일의 웨딩 사진을 제공하는 포토스튜디오입니다.,,0
27591142,이미지랩포토스튜디오,studio,서울 성동구 행당동 20-17,02-2291-9172,http://place.map.kakao.com/27591142,37.5583516939628,127.040286751558,"문화,예술 > 사진 > 사진관,포토스튜디오","{""모던"",""내추럴"",""로맨틱""}",성동구,100,300,"전문 사진작가가 운영하는 포토스튜디오로, 다양한 촬영 스타일을 제공합니다.",,0
24345943,메리골드스튜디오,studio,서울 강남구 청담동 13-20,02-544-9972,http://place.map.kakao.com/24345943,37.52225640491773,127.04612032968365,"문화,예술 > 사진 > 사진관,포토스튜디오","{""모던"",""로맨틱""}",강남구,100,300,프리미엄 웨딩 사진을 제공하는 포토스튜디오,,0
1388112976,더라임스튜디오,studio,서울 강남구 역삼동 724-41,02-6348-3777,http://place.map.kakao.com/1388112976,37.49973889052527,127.04269457506555,"문화,예술 > 사진 > 사진관,포토스튜디오","{""모던"",""내추럴"",""클래식"",""로맨틱""}",강남구,100,300,더라임스튜디오는 다양한 스타일의 사진을 제공하는 사진관입니다.,,0
12409153,폴스베이비,studio,서울 강남구 삼성동 39-29,02-517-7776,http://place.map.kakao.com/12409153,37.511766218411836,127.04561393960225,"문화,예술 > 사진 > 사진관,포토스튜디오","{""로맨틱"",""클래식""}",강남구,100,300,폴스베이비는 모던하고 클래식한 감각을 살린 포토스튜디오입니다.,,0
361705398,갤러리식스,studio,서울 강남구 신사동 629-31,,http://place.map.kakao.com/361705398,37.52146809926054,127.03234158380626,"문화,예술 > 사진 > 사진관,포토스튜디오","{""모던"",""내추럴"",""클래식""}",강남구,100,300,갤러리식스는 세련된 사진을 제공하는 포토스튜디오입니다.,,0
350023371,플랑스튜디오,studio,서울 서초구 양재동 306-8,010-6516-4087,http://place.map.kakao.com/350023371,37.47348638744949,127.04467157250491,"문화,예술 > 사진 > 사진관,포토스튜디오","{""모던"",""로맨틱""}",서초구,100,300,플랑스튜디오는 현대적인 감각과 로맨틱한 분위기를 중시하는 사진관입니다.,,0
277439396,어나더힐,studio,서울 강남구 도곡동 554-5,070-4139-8555,http://place.map.kakao.com/277439396,37.489916785835,127.035188758389,"문화,예술 > 사진 > 사진관,포토스튜디오","{""모던"",""로맨틱""}",강남구,100,300,사진 전문 스튜디오로 다양한 스타일의 촬영을 제공합니다.,,0
1235654021,사진온실,studio,서울 서초구 반포동 705-2,02-6083-4257,http://place.map.kakao.com/1235654021,37.51038581859745,127.01980473595188,"문화,예술 > 사진 > 사진관,포토스튜디오","{""모던"",""내추럴"",""클래식"",""로맨틱""}",서초구,100,300,사진 전문 포토스튜디오로 다양한 스타일의 웨딩 촬영을 제공합니다.,,0
1787199506,홍연재 한옥스튜디오,studio,서울 서초구 서초동 1628-50,010-9363-6630,http://place.map.kakao.com/1787199506,37.4881580696902,127.019354494317,"문화,예술 > 사진 > 사진관,포토스튜디오","{""전통"",""로맨틱""}",서초구,100,300,전통 한옥에서 특별한 웨딩 촬영을 제공하는 스튜디오,,0
198462553,렌탈스튜디오 장미의기사,studio,서울 강남구 논현동 80-6,010-4191-1993,http://place.map.kakao.com/198462553,37.5170167325102,127.030500408004,"문화,예술 > 사진 > 사진관,포토스튜디오 > 대여사진관","{""모던"",""내추럴"",""클래식"",""로맨틱""}",강남구,100,300,대여사진관으로 다양한 스타일의 웨딩 촬영 서비스를 제공,,0
1363452946,O3스튜디오 강남점,studio,서울 강남구 논현동 47-7,070-7740-5697,http://place.map.kakao.com/1363452946,37.5131334488384,127.022237314766,"문화,예술 > 사진 > 사진관,포토스튜디오","{""모던"",""클래식"",""로맨틱""}",강남구,100,300,O3스튜디오 강남점은 다양한 스타일의 웨딩 촬영을 전문으로 하는 포토 스튜디오입니다.,,0
14605083,꼴레아음악연습실,studio,서울 강남구 신사동 507-11,02-542-1771,http://place.map.kakao.com/14605083,37.5193391252468,127.0196159312739,"서비스,산업 > 전문대행 > 공간대여","{""모던"",""클래식""}",강남구,200,1000,전문적인 공간대여 서비스를 제공하는 음악 연습실,,0
1353319026,가을애사진관,studio,서울 서초구 서초동 1357,010-9080-7957,http://place.map.kakao.com/1353319026,37.48844048026075,127.03033048467762,"문화,예술 > 사진 > 사진관,포토스튜디오","{""모던"",""내추럴"",""로맨틱""}",서초구,100,300,가을애사진관은 자연스러운 분위기와 고급스러운 느낌을 강조한 포토스튜디오입니다.,,0
19097402,연우갤러리,studio,서울 강남구 논현동 241-1,02-3446-9833,http://place.map.kakao.com/19097402,37.51653451074489,127.04015567078653,"문화,예술 > 사진 > 사진관,포토스튜디오","{""모던"",""로맨틱""}",강남구,100,300,연우갤러리는 세련된 모던 스타일과 감성적인 로맨틱 테마의 웨딩 사진을 전문으로 하는 포토스튜디오입니다.,,0
2094496566,제스쳐스튜디오,studio,서울 강남구 논현동 59-6,02-3442-7882,http://place.map.kakao.com/2094496566,37.51949663942728,127.02913041467741,"문화,예술 > 사진 > 사진관,포토스튜디오","{""모던"",""내추럴"",""로맨틱""}",강남구,100,300,트렌디하고 자연스러운 감각을 살린 웨딩 촬영 전문 스튜디오.,,0
1124812975,스튜디오라움,studio,서울 강남구 논현동 114-28,02-543-8233,http://place.map.kakao.com/1124812975,37.516953552376,127.037174178816,"문화,예술 > 사진 > 사진관,포토스튜디오","{""모던"",""클래식"",""럭셔리""}",강남구,100,300,세련된 분위기와 고품질 사진촬영을 제공하는 스튜디오.,,0
1524689014,타이거스튜디오,studio,서울 서초구 반포동 716-16,010-5311-2800,http://place.map.kakao.com/1524689014,37.5079603739589,127.019443300968,"문화,예술 > 사진 > 사진관,포토스튜디오","{""모던"",""클래식"",""로맨틱""}",서초구,100,300,전통과 현대가 조화를 이루는 고품격 사진 스튜디오,,0
817495640,포에버마인스튜디오 강남본사,studio,서울 강남구 논현동 39-4,02-514-3530,http://place.map.kakao.com/817495640,37.51388466324689,127.02756843861967,"문화,예술 > 사진 > 사진관,포토스튜디오","{""모던"",""내추럴"",""클래식"",""로맨틱""}",강남구,100,300,포토스튜디오로 다양한 스타일의 웨딩 촬영을 제공합니다.,,0
1445472948,조아패밀리스튜디오 강남점,studio,서울 강남구 역삼동 624-32,010-8877-5885,http://place.map.kakao.com/1445472948,37.5032049448663,127.031599721335,"문화,예술 > 사진 > 사진관,포토스튜디오","{""모던"",""로맨틱""}",강남구,100,300,고품격 웨딩 사진 촬영을 전문으로 하는 스튜디오입니다.,,0
2036960544,601아뜰리에,studio,서울 서초구 서초동 1571-20,010-9357-9760,http://place.map.kakao.com/2036960544,37.4921783867584,127.012518846265,"문화,예술 > 사진 > 사진관,포토스튜디오","{""모던"",""로맨틱""}",서초구,100,300,"601아뜰리에에서 제공하는 세련된 사진 촬영 서비스로, 특별한 순간을 담아드립니다.",,0
774175971,판테온스튜디오,studio,서울 서초구 양재동 70-6,010-4070-7555,http://place.map.kakao.com/774175971,37.4764087195246,127.035670817415,"문화,예술 > 사진 > 사진관,포토스튜디오 > 대여사진관","{""모던"",""내추럴"",""클래식""}",서초구,100,300,다양한 스타일의 웨딩 사진을 전문으로 하는 대여사진관.,,0
1605990446,크로마 스튜디오,studio,서울 강남구 논현동 96-2,02-6326-0104,http://place.map.kakao.com/1605990446,37.5210586129738,127.036886624588,"문화,예술 > 사진 > 사진관,포토스튜디오","{""모던"",""내추럴"",""럭셔리""}",강남구,100,300,크로마 스튜디오는 다양한 스타일의 웨딩 사진을 전문으로 하는 포토스튜디오입니다.,,0
691808167,원데이그라피가을숲,studio,서울 광진구 자양동 553-316,02-455-4405,http://place.map.kakao.com/691808167,37.532098689564855,127.07039223936252,"문화,예술 > 사진 > 사진관,포토스튜디오","{""모던"",""내추럴"",""로맨틱""}",광진구,100,300,자연광을 활용한 아름다운 웨딩 사진을 촬영하는 사진관,,0
8402019,붐스튜디오,studio,서울 강남구 청담동 57-16,02-544-3512,http://place.map.kakao.com/8402019,37.523197251946,127.052136875883,"문화,예술 > 사진 > 사진관,포토스튜디오","{""모던"",""내추럴"",""클래식"",""럭셔리""}",강남구,100,300,붐스튜디오는 다양한 스타일의 웨딩 촬영을 제공하는 포토 스튜디오입니다.,,0
921036648,스튜디오 지순담,studio,서울 강남구 역삼동 613-11,02-501-4036,http://place.map.kakao.com/921036648,37.5045116834703,127.030532641862,"문화,예술 > 사진 > 사진관,포토스튜디오","{""모던"",""내추럴"",""클래식"",""럭셔리""}",강남구,100,300,"서울 강남구에 위치한 전문 사진관으로, 다양한 스타일의 웨딩 촬영을 제공합니다.",,0
1408572452,맑음사진관,studio,서울 광진구 자양동 648-21,02-456-2732,http://place.map.kakao.com/1408572452,37.5295965841026,127.080316288319,"문화,예술 > 사진 > 사진관,포토스튜디오","{""모던"",""로맨틱""}",광진구,100,300,다양한 스타일을 제공합니다.,,0
606155364,오브라픽쳐스,studio,서울 강남구 청담동 49-3,02-516-8806,http://place.map.kakao.com/606155364,37.52368892851137,127.0485443566842,"문화,예술 > 사진 > 사진관,포토스튜디오","{""모던"",""럭셔리""}",강남구,100,300,"오브라픽쳐스는 고급스러운 촬영 스타일의 사진관으로, 청담동에 위치해 있습니다.",,0
1450635474,컨택스튜디오,studio,서울 서초구 서초동 1431-13,070-4025-4667,http://place.map.kakao.com/1450635474,37.48462568135943,127.02185574340427,"문화,예술 > 사진 > 사진관,포토스튜디오","{""모던"",""내추럴"",""클래식"",""로맨틱""}",서초구,100,300,다양한 스타일의 웨딩 사진을 전문으로 하는 포토스튜디오.,,0
1446282921,얇은공기스튜디오,studio,서울 용산구 보광동 265-960,,http://place.map.kakao.com/1446282921,37.53209083552397,126.99960288541833,"문화,예술 > 사진 > 사진관,포토스튜디오","{""모던"",""내추럴""}",용산구,100,300,얇은공기스튜디오는 다양한 스타일의 웨딩 사진을 전문으로 하는 포토스튜디오입니다.,,0
458174135,암바스튜디오,studio,서울 강남구 신사동 563-4,02-544-8730,http://place.map.kakao.com/458174135,37.5198972610911,127.02669171097,"문화,예술 > 사진 > 사진관,포토스튜디오","{""모던"",""내추럴"",""클래식"",""로맨틱""}",강남구,100,300,암바스튜디오에서는 다양한 스타일의 웨딩 사진을 제공합니다.,,0
720257776,고려영정,studio,서울 강남구 논현동 111-31,010-9703-0124,http://place.map.kakao.com/720257776,37.51796149223626,127.04076274102303,"문화,예술 > 사진 > 사진관,포토스튜디오","{""모던"",""클래식"",""로맨틱""}",강남구,100,300,서울 강남구에 위치한 사진관으로 모던하고 클래식한 웨딩 촬영 스타일을 제공합니다.,,0
1518335742,미열스튜디오,studio,서울 서초구 반포동 52-1,1522-8166,http://place.map.kakao.com/1518335742,37.5023472749117,127.011242591178,"문화,예술 > 사진 > 사진관,포토스튜디오","{""모던"",""내추럴"",""클래식"",""로맨틱""}",서초구,100,300,다양한 스타일의 웨딩 촬영을 전문으로 하는 포토스튜디오,,0
2128547397,로로포토그라피,studio,서울 강남구 역삼동 679-5,,http://place.map.kakao.com/2128547397,37.5013157161753,127.037170948295,"문화,예술 > 사진 > 사진관,포토스튜디오","{""모던"",""내추럴"",""로맨틱""}",강남구,100,300,로로포토그라피는 다양한 스타일의 웨딩 촬영을 전문으로 하는 감각적인 사진관입니다.,,0
1342247554,바라봄스튜디오 강남역점,studio,서울 서초구 서초동 1308-16,,http://place.map.kakao.com/1342247554,37.5004603057599,127.024783742464,"문화,예술 > 사진 > 사진관,포토스튜디오 > 대여사진관","{""모던"",""내추럴""}",서초구,100,300,서초구에 위치한 대여 사진관으로 다양한 스타일의 웨딩 촬영을 제공.,,0
15502142,서준스타일,studio,서울 강남구 신사동 561-9,02-3444-7621,http://place.map.kakao.com/15502142,37.519266927353286,127.02500828034067,"문화,예술 > 사진 > 사진관,포토스튜디오","{""모던"",""내추럴"",""로맨틱""}",강남구,100,300,세련된 스타일의 다양한 사진 촬영 서비스를 제공하는 포토스튜디오,,0
2016384006,워너비어데이,studio,서울 서초구 염곡동 208-2,010-4679-8521,http://place.map.kakao.com/2016384006,37.4579660545123,127.056196671134,"문화,예술 > 사진 > 사진관,포토스튜디오","{""모던"",""내추럴"",""로맨틱""}",서초구,100,300,사진관 및 포토스튜디오로 다양한 스타일의 웨딩 촬영 제공.,,0
797548998,제이리스튜디오,studio,서울 강남구 논현동 192-2,010-2645-2750,http://place.map.kakao.com/797548998,37.5079340581649,127.032568733236,"문화,예술 > 사진 > 사진관,포토스튜디오","{""모던"",""내추럴"",""로맨틱""}",강남구,100,300,제이리스튜디오는 다양한 스타일의 웨딩 촬영을 전문으로 하는 포토스튜디오입니다.,,0
1731480734,스튜디오민트워터,studio,서울 서초구 양재동 92-1,010-7157-3855,http://place.map.kakao.com/1731480734,37.4781604936666,127.04059866085,"서비스,산업 > 전문대행 > 공간대여 > 모임공간","{""모던"",""내추럴"",""로맨틱""}",서초구,200,1000,다양한 스타일의 모임공간을 제공하는 전문 대행 업체,,0
1967702559,비엔에이치,studio,서울 강남구 논현동 93-7,02-514-0106,http://place.map.kakao.com/1967702559,37.5221611221947,127.03789170009,"문화,예술 > 사진 > 사진관,포토스튜디오","{""모던"",""로맨틱""}",강남구,100,300,비엔에이는 현대적인 감각과 로맨틱한 분위기를 가진 포토스튜디오입니다.,,0
2119143259,주니스튜디오,studio,서울 서초구 서초동 1327-34,010-4968-5818,http://place.map.kakao.com/2119143259,37.4943931800883,127.027704885557,"문화,예술 > 사진 > 사진관,포토스튜디오","{""모던"",""로맨틱""}",서초구,100,300,주니스튜디오에서는 다양한 스타일의 사진 촬영을 제공하며 모던하고 로맨틱한 분위기를 중시합니다.,,0
528395366,스튜디오키하나,studio,서울 강남구 역삼동 614-7,,http://place.map.kakao.com/528395366,37.504347141639315,127.02917881364837,"문화,예술 > 사진 > 사진관,포토스튜디오","{""모던"",""로맨틱""}",강남구,100,300,스튜디오키하나는 모던하고 로맨틱한 스타일의 웨딩 사진을 전문으로 하는 포토스튜디오입니다.,,0
1373403976,유어레이스튜디오,studio,서울 강남구 도곡동 453-9,02-514-0030,http://place.map.kakao.com/1373403976,37.4822114062669,127.045605011964,"문화,예술 > 사진 > 사진관,포토스튜디오","{""모던"",""내추럴"",""로맨틱""}",강남구,100,300,유어레이스튜디오는 현대적인 감각과 자연스러운 스타일을 강조하는 포토스튜디오입니다.,,0
1730747771,레이나그라피,studio,서울 강남구 신사동 585-4,010-8405-6046,http://place.map.kakao.com/1730747771,37.5222234333521,127.02763598672287,"문화,예술 > 사진 > 사진관,포토스튜디오","{""모던"",""로맨틱""}",강남구,100,300,세련된 모던 감각의 사진을 제공하는 포토 스튜디오입니다.,,0
285067406,노브아,studio,서울 마포구 연남동 225-15,,http://place.map.kakao.com/285067406,37.5639873089991,126.925968257395,"문화,예술 > 사진 > 사진관,포토스튜디오 > 대여사진관","{""모던"",""내추럴"",""클래식""}",마포구,100,300,노브아는 현대적인 감각의 사진을 전문으로 하는 대여사진관입니다.,,0
1065037899,스튜디오헤이지,studio,서울 마포구 망원동 397-17,010-2870-4158,http://place.map.kakao.com/1065037899,37.5534291524786,126.903173760713,"문화,예술 > 사진 > 사진관,포토스튜디오","{""모던"",""내추럴"",""로맨틱""}",마포구,100,300,자연광을 활용한 감성 사진 촬영 전문 스튜디오,,0
162575338,어치브 스튜디오 합정점,studio,서울 마포구 합정동 368-27,010-2175-2728,http://place.map.kakao.com/162575338,37.5457280038297,126.914429426572,"문화,예술 > 사진 > 사진관,포토스튜디오","{""모던"",""내추럴"",""로맨틱""}",마포구,100,300,어치브 스튜디오 합정점은 모던하고 내추럴한 분위기의 웨딩 사진을 전문으로 하는 포토스튜디오입니다.,,0
1266138586,이거슨스튜디오,studio,서울 영등포구 양평동4가 269,,http://place.map.kakao.com/1266138586,37.5377968733332,126.897885137258,"문화,예술 > 사진 > 사진관,포토스튜디오","{""모던"",""내추럴""}",영등포구,100,300,심플하면서도 세련된 사진을 제공하는 스튜디오입니다.,,0
1166660819,리그라피,studio,서울 서대문구 연희동 137-15,010-2809-7669,http://place.map.kakao.com/1166660819,37.56754466554033,126.93079462396219,"문화,예술 > 사진 > 사진관,포토스튜디오","{""모던"",""내추럴"",""클래식"",""로맨틱""}",서대문구,100,300,아름다운 순간을 담아내는 전문 사진 스튜디오,,0
302874592,스튜디오 찬란,studio,서울 강서구 염창동 252-5,070-8623-1002,http://place.map.kakao.com/302874592,37.5495253314094,126.876366781449,"문화,예술 > 사진 > 사진관,포토스튜디오","{""내추럴"",""로맨틱""}",강서구,100,300,모던한 감각과 자연스러운 분위기를 담은 웨딩 사진 전문 스튜디오,,0
1385149273,희희낙락사진관,studio,서울 마포구 연남동 229-63,010-3972-1122,http://place.map.kakao.com/1385149273,37.56269603471792,126.92431591256195,"문화,예술 > 사진 > 사진관,포토스튜디오","{""모던"",""내추럴"",""로맨틱""}",마포구,100,300,감성적인 분위기의 웨딩 사진을 전문으로 하는 포토스튜디오.,,0
424676123,스튜디오어라이,studio,서울 마포구 동교동 158-11,02-324-9230,http://place.map.kakao.com/424676123,37.556974361073,126.922397713901,"문화,예술 > 사진 > 사진관,포토스튜디오","{""모던"",""로맨틱""}",마포구,100,300,서울 마포구에 위치한 스튜디오어라이에서 다양한 스타일의 웨딩 사진 촬영 서비스를 제공합니다.,,0
1953242000,도시공간스튜디오,studio,서울 마포구 상수동 353-8,070-8691-2376,http://place.map.kakao.com/1953242000,37.5457814981855,126.924147435923,"문화,예술 > 사진 > 사진관,포토스튜디오","{""모던"",""내추럴""}",마포구,100,300,도시공간스튜디오는 세련된 모던 사진과 내추럴한 분위기를 제공하는 포토스튜디오입니다.,,0
665707907,외양간스튜디오,studio,서울 마포구 서교동 400-1,0503-7153-1692,http://place.map.kakao.com/665707907,37.54925606404202,126.91918959646442,"문화,예술 > 사진 > 사진관,포토스튜디오","{""모던"",""내추럴"",""클래식""}",마포구,100,300,서울 마포구에 위치한 사진관으로 다양한 스타일의 웨딩 사진 촬영을 전문으로 합니다.,,0
938846111,프롬엘라,studio,서울 마포구 서교동 469-9,02-6032-5757,http://place.map.kakao.com/938846111,37.5575051839111,126.913516208089,"문화,예술 > 사진 > 사진관,포토스튜디오","{""모던"",""로맨틱""}",마포구,100,300,프롬엘라는 모던하고 로맨틱한 분위기의 포토스튜디오입니다.,,0
1988021461,리오프로덕션,studio,서울 마포구 서교동 475-1,02-6953-9697,http://place.map.kakao.com/1988021461,37.55606337180553,126.91200360283567,"문화,예술 > 영화,영상 > 영상제작,배급","{""모던"",""로맨틱""}",마포구,100,300,"영상 제작 및 배급 전문 업체로, 예술성을 살린 웨딩 영상 촬영을 제공합니다.",,0
1401593999,다비드727스튜디오,studio,서울 강서구 등촌동 14-7,010-8739-7901,http://place.map.kakao.com/1401593999,37.5642279852193,126.847971146008,"문화,예술 > 사진 > 사진관,포토스튜디오",{},강서구,100,300,다양한 스타일의 웨딩 촬영을 전문으로 하는 사진관,,0
45422706,스티카 홍대점,studio,서울 마포구 서교동 366-28,010-7914-8479,http://place.map.kakao.com/45422706,37.5522105003073,126.920611197228,"문화,예술 > 사진 > 사진관,포토스튜디오","{""모던"",""내추럴"",""로맨틱""}",마포구,100,300,스티카 홍대점은 현대적이면서 자연스러운 분위기의 웨딩 사진을 전문으로 하는 포토스튜디오입니다.,,0
1853862041,비밀의스튜디오,studio,서울 영등포구 영등포동7가 208,010-9544-1156,http://place.map.kakao.com/1853862041,37.5229637382506,126.905518617768,"문화,예술 > 사진 > 사진관,포토스튜디오","{""모던"",""로맨틱""}",영등포구,100,300,비밀의스튜디오는 다양한 스타일의 웨딩 촬영을 전문으로 하는 포토 스튜디오입니다.,,0
2144746930,하지스튜디오,studio,서울 마포구 서교동 335-15,0507-1349-7618,http://place.map.kakao.com/2144746930,37.5542711121635,126.927669784663,"문화,예술 > 사진 > 사진관,포토스튜디오 > 대여사진관","{""모던"",""로맨틱""}",마포구,100,300,정교한 촬영 기술로 자연스러운 순간을 담아내는 포토스튜디오,,0
2146405983,파사드서호,studio,서울 마포구 신수동 371-6,0507-1342-3716,http://place.map.kakao.com/2146405983,37.545362398882865,126.93445656246438,"문화,예술 > 사진 > 사진관,포토스튜디오 > 대여사진관","{""내추럴"",""로맨틱""}",마포구,100,300,모던하고 자연스러운 웨딩 사진을 제공하는 대여사진관,,0
1802326397,렌탈스튜디오&파티룸 뮤크 영등포점,studio,서울 영등포구 당산동1가 224,070-4513-1854,http://place.map.kakao.com/1802326397,37.5231839408694,126.900469590796,"서비스,산업 > 전문대행 > 공간대여","{""모던"",""클래식"",""로맨틱""}",영등포구,200,1000,공간 대여 전문 업체로 웨딩 행사와 파티를 위한 다양한 공간을 제공합니다.,,0
1836078795,청림관,studio,서울 마포구 합정동 411-7,,http://place.map.kakao.com/1836078795,37.5483362429034,126.918025014935,"문화,예술 > 사진 > 사진관,포토스튜디오","{""모던"",""내추럴""}",마포구,100,300,"청림관은 고품질의 사진을 제공하는 포토스튜디오로, 모던하고 내추럴한 스타일의 촬영을 전문으로 합니다.",,0
46121450,마고픽스튜디오,studio,서울 서대문구 대현동 53-9,0503-7151-3070,http://place.map.kakao.com/46121450,37.558403090007545,126.94623826960941,"문화,예술 > 사진 > 사진관,포토스튜디오","{""모던"",""내추럴"",""클래식""}",서대문구,100,300,현대적인 감각의 사진 촬영을 제공하는 포토스튜디오,,0
1278768256,린데렐라,studio,서울 마포구 서교동 362-11,010-3858-8482,http://place.map.kakao.com/1278768256,37.551533409469855,126.92266137726979,"문화,예술 > 사진 > 사진관,포토스튜디오","{""모던"",""내추럴"",""클래식"",""로맨틱""}",마포구,100,300,린데렐라는 다양한 스타일의 웨딩 촬영을 전문으로 하는 사진관입니다.,,0
1528387686,사바나스튜디오,studio,서울 서대문구 연희동 121-1,,http://place.map.kakao.com/1528387686,37.57106698748288,126.92982919069573,"문화,예술 > 사진 > 사진관,포토스튜디오","{""모던"",""내추럴"",""클래식""}",서대문구,100,300,사바나스튜디오는 다양한 스타일의 웨딩 촬영을 전문으로 하는 포토스튜디오입니다.,,0
1866760210,최현민스튜디오,studio,서울 마포구 연남동 241-34,010-7924-4074,http://place.map.kakao.com/1866760210,37.56523291599207,126.92242876363095,"문화,예술 > 사진 > 사진관,포토스튜디오","{""모던"",""내추럴""}",마포구,100,300,최현민스튜디오는 감각적인 사진과 독특한 스타일을 제공하는 포토스튜디오입니다.,,0
1056557358,말래스튜디오,studio,서울 마포구 망원동 57-151,,http://place.map.kakao.com/1056557358,37.5554282638918,126.907415172586,"문화,예술 > 사진 > 사진관,포토스튜디오","{""모던"",""로맨틱""}",마포구,100,300,말래스튜디오는 현대적이면서도 로맨틱한 분위기의 사진 촬영을 전문으로 하는 포토스튜디오입니다.,,0
149804240,주카스튜디오,studio,서울 마포구 연남동 509-13,010-9066-1229,http://place.map.kakao.com/149804240,37.56291820110135,126.92098579592991,"문화,예술 > 사진 > 사진관,포토스튜디오","{""모던"",""내추럴"",""로맨틱""}",마포구,100,300,주카스튜디오는 현대적이고 자연스러운 웨딩 사진을 전문으로 하는 포토스튜디오입니다.,,0
802426026,스튜디오후아,studio,서울 마포구 성산동 231-1,,http://place.map.kakao.com/802426026,37.5606061975756,126.915707205944,"문화,예술 > 사진 > 사진관,포토스튜디오","{""모던"",""내추럴"",""클래식""}",마포구,100,300,세련된 사진 스타일을 제공하는 포토 스튜디오,,0
876788178,부라더스튜디오,studio,서울 송파구 방이동 64-11,02-423-9794,http://place.map.kakao.com/876788178,37.5142717616894,127.108138769822,"문화,예술 > 사진","{""모던"",""내추럴"",""로맨틱""}",송파구,100,300,부라더스튜디오는 자연스러운 분위기와 로맨틱한 연출을 주제로 한 사진 촬영 전문 스튜디오입니다.,,0
766961362,그린티스냅&스튜디오,studio,서울 강동구 성내동 455-18,010-5769-1190,http://place.map.kakao.com/766961362,37.528594779944,127.122219577475,"문화,예술 > 사진 > 사진관,포토스튜디오","{""모던"",""내추럴"",""클래식""}",강동구,100,300,그린티스냅&스튜디오는 다양한 스타일의 사진 촬영을 전문으로 하는 포토스튜디오입니다.,,0
645897344,새온스튜디오,studio,서울 송파구 송파동 9-10,0507-1365-8656,http://place.map.kakao.com/645897344,37.5088343100258,127.106032866639,"문화,예술 > 사진 > 사진관,포토스튜디오","{""모던"",""내추럴"",""로맨틱""}",송파구,100,300,웅장한 스튜디오에서 다양한 스타일의 웨딩 촬영을 제공합니다.,,0
144961561,아워플래닛,studio,서울 송파구 삼전동 98-11,010-9110-0070,http://place.map.kakao.com/144961561,37.504369178970784,127.09289721744955,"문화,예술 > 사진 > 사진관,포토스튜디오","{""모던"",""내추럴"",""로맨틱""}",송파구,100,300,아워플래닛은 다양한 스타일의 웨딩 촬영을 전문으로 하는 포토스튜디오입니다.,,0
1727453766,모이앤마이유,studio,서울 송파구 장지동 880-1,010-5833-0755,http://place.map.kakao.com/1727453766,37.48168976283687,127.14276111205005,"문화,예술 > 사진 > 사진관,포토스튜디오","{""모던"",""내추럴"",""클래식""}",송파구,100,300,"사진 촬영에 특화된 포토스튜디오로, 다양한 스타일의 웨딩 촬영을 제공합니다.",,0
665122217,스튜디오하이러브,studio,서울 강동구 길동 96-7,010-7334-2393,http://place.map.kakao.com/665122217,37.5394782984542,127.146476147933,"문화,예술 > 사진 > 사진관,포토스튜디오","{""모던"",""로맨틱""}",강동구,100,300,스튜디오하이러브는 세련된 사진과 로맨틱한 분위기로 특별한 순간을 담아냅니다.,,0
1951894778,이온스튜디오,studio,서울 광진구 화양동 34-1,010-8201-5541,http://place.map.kakao.com/1951894778,37.5442925000386,127.069419241641,"문화,예술 > 사진 > 사진관,포토스튜디오","{""모던"",""내추럴"",""로맨틱""}",광진구,100,300,현대적인 감각과 자연스러운 아름다움을 담은 웨딩 사진 전문 스튜디오,,0
248649720,스튜디오코니,studio,서울 강동구 길동 96-7,010-5692-7091,http://place.map.kakao.com/248649720,37.5394747141133,127.146460300045,"문화,예술 > 사진 > 사진관,포토스튜디오","{""모던"",""로맨틱""}",강동구,100,300,스튜디오코니는 다양한 스타일의 사진 촬영을 제공하는 포토스튜디오입니다.,,0
887944162,그림스튜디오,studio,서울 송파구 방이동 124,,http://place.map.kakao.com/887944162,37.5086964290372,127.115663365182,"문화,예술 > 사진 > 사진관,포토스튜디오","{""모던"",""로맨틱""}",송파구,100,300,전통과 현대를 아우르는 감각적인 사진 촬영 서비스 제공,,0
996193470,알리에스튜디오,studio,서울 강동구 천호동 233-34,010-3053-5608,http://place.map.kakao.com/996193470,37.5484548058407,127.136051057866,"서비스,산업 > 전문대행 > 공간대여","{""모던"",""내추럴"",""클래식""}",강동구,200,1000,서울 강동구에 위치한 전문 공간 대여 업체,,0
1969696534,한옥스튜디오 나빛,studio,서울 종로구 안국동 72-3,02-730-0365,http://place.map.kakao.com/1969696534,37.57786226587005,126.98420758508405,"문화,예술 > 사진 > 사진관,포토스튜디오","{""모던"",""클래식""}",종로구,100,300,전통 한옥에서 촬영하는 특색 있는 웨딩 사진 제공,,0
411227498,예담헌,studio,서울 종로구 가회동 1-38,1544-6867,http://place.map.kakao.com/411227498,37.5840494692979,126.984813119356,"문화,예술 > 사진 > 사진관,포토스튜디오","{""클래식"",""로맨틱""}",종로구,100,300,예담헌은 전통적인 아름다움과 현대적인 감각이 조화를 이루는 사진관입니다.,,0
2068850260,시에나스튜디오,studio,서울 종로구 명륜4가 8-1,02-747-7789,http://place.map.kakao.com/2068850260,37.583372895636955,127.00092610377047,"문화,예술 > 사진 > 사진관,포토스튜디오","{""모던"",""루맨틱""}",종로구,100,300,문화와 예술을 담아내는 전문 사진 스튜디오,,0
676326688,스튜디오아름담다,studio,서울 용산구 청파동2가 64-9,010-4498-7145,http://place.map.kakao.com/676326688,37.5448738945171,126.96619763006,"문화,예술 > 사진 > 사진관,포토스튜디오","{""모던"",""내추럴"",""로맨틱""}",용산구,100,300,사진을 통한 특별한 순간을 담는 포토스튜디오,,0
1892257700,우사단안채 스튜디오,studio,서울 용산구 용문동 25-5,0507-1380-4376,http://place.map.kakao.com/1892257700,37.5367260500195,126.96009373819,"문화,예술 > 사진 > 사진관,포토스튜디오","{""모던"",""내추럴"",""클래식""}",용산구,100,300,우사단안채 스튜디오는 다양한 스타일의 웨딩 사진 촬영을 전문으로 하는 포토스튜디오입니다.,,0
314840922,이루다스튜디오,studio,서울 종로구 통의동 35-84,02-733-7676,http://place.map.kakao.com/314840922,37.57652247800054,126.9739797741135,"문화,예술 > 사진 > 사진관,포토스튜디오","{""모던"",""내추럴"",""클래식""}",종로구,100,300,이루다스튜디오는 다양한 스타일의 웨딩 촬영을 전문으로 하는 포토 스튜디오입니다.,,0
638003280,한옥스튜디오 이다한옥,studio,서울 종로구 삼청동 35-227,010-2960-7214,http://place.map.kakao.com/638003280,37.58446733671439,126.98337743940465,"문화,예술 > 사진 > 사진관,포토스튜디오","{""클래식"",""로맨틱""}",종로구,100,300,전통 한옥에서의 독특한 웨딩 촬영 경험 제공.,,0
375044098,36씬 스튜디오,studio,서울 중구 을지로3가 343-1,0507-1390-8766,http://place.map.kakao.com/375044098,37.5658337626388,126.990608702847,"문화,예술 > 사진 > 사진관,포토스튜디오","{""모던"",""내추럴"",""클래식""}",중구,100,300,36씬 스튜디오는 현대적인 감각의 다양한 스타일의 웨딩 사진을 제공합니다.,,0
322991202,빛나는사진관,studio,서울 성북구 안암동2가 139-26,010-3002-0789,http://place.map.kakao.com/322991202,37.586213613536586,127.02128534523192,"문화,예술 > 사진 > 사진관,포토스튜디오","{""모던"",""로맨틱""}",성북구,100,300,빛나는 사진관은 아름다운 순간을 포착하는 독창적인 포토스튜디오입니다.,,0
401619566,비토가사진관,studio,서울 종로구 원서동 20-1,,http://place.map.kakao.com/401619566,37.5830381328584,126.989158520805,"문화,예술 > 사진 > 사진관,포토스튜디오","{""모던"",""내추럴"",""로맨틱""}",종로구,100,300,비토가사진관은 다양한 스타일의 웨딩 촬영을 전문으로 하는 사진관입니다.,,0
618863158,흐드러지다스튜디오,studio,서울 중구 을지로3가 302-15,02-2275-1128,http://place.map.kakao.com/618863158,37.5657067937549,126.991556109694,"문화,예술 > 사진 > 사진관,포토스튜디오","{""모던"",""로맨틱""}",중구,100,300,흐드러지다스튜디오는 아름다운 순간을 담아내는 사진 전문 스튜디오입니다.,,0
425846812,베이비파스텔 삼청점,studio,서울 종로구 삼청동 15-2,1833-9607,http://place.map.kakao.com/425846812,37.58786289613165,126.98147681213337,"문화,예술 > 사진 > 사진관,포토스튜디오","{""모던"",""내추럴"",""클래식""}",종로구,100,300,"베이비파스텔 삼청점은 감각적이고 세련된 포토스튜디오로, 다양한 스타일의 촬영을 제공합니다.",,0
279536237,마이오운스튜디오,studio,서울 마포구 공덕동 105-95,,http://place.map.kakao.com/279536237,37.5508073035662,126.956236313081,"문화,예술 > 사진 > 사진관,포토스튜디오","{""모던"",""내추럴"",""로맨틱""}",마포구,100,300,마이오운스튜디오는 세련된 모던 스타일의 웨딩 촬영을 전문으로 하는 포토스튜디오입니다.,,0
1804796133,끌림스냅,studio,서울 용산구 이태원동 225-164,02-501-0303,http://place.map.kakao.com/1804796133,37.5395850035477,126.990830374268,"문화,예술 > 사진 > 사진관,포토스튜디오","{""모던"",""내추럴"",""로맨틱""}",용산구,100,300,전문 사진 촬영 서비스를 제공하는 포토스튜디오입니다.,,0
1863082536,해하랑한옥스튜디오,studio,서울 성북구 보문동2가 123,010-2744-7757,http://place.map.kakao.com/1863082536,37.5843353466714,127.019528813587,"문화,예술 > 사진 > 사진관,포토스튜디오","{""클래식"",""로맨틱""}",성북구,100,300,해하랑한옥스튜디오는 전통과 현대적인 감각이 어우러진 웨딩 사진 촬영 전문 스튜디오입니다.,,0
253557781,동묘공간,studio,서울 종로구 숭인동 318-9,,http://place.map.kakao.com/253557781,37.5712813063102,127.016481528854,"문화,예술 > 사진 > 사진관,포토스튜디오","{""모던"",""내추럴"",""클래식""}",종로구,100,300,예술적인 사진 촬영과 다양한 스타일로 특별한 순간을 담아주는 포토스튜디오,,0
847475370,천년후애,studio,서울 종로구 명륜2가 175-1,010-8678-8672,http://place.map.kakao.com/847475370,37.58348372065129,126.99956638353314,"문화,예술 > 사진 > 사진관,포토스튜디오","{""모던"",""내추럴""}",종로구,100,300,서울 종로구에 위치한 사진 전문 스튜디오로 모던하고 내추럴한 스타일의 웨딩 사진 촬영을 제공합니다.,,0
1771833058,더라운지,studio,서울 중구 신당동 357-10,,http://place.map.kakao.com/1771833058,37.555590329434,127.009393406729,"문화,예술 > 사진 > 사진관,포토스튜디오","{""모던"",""로맨틱""}",중구,100,300,더라운지는 세련된 모던 스타일과 로맨틱한 분위기의 사진을 제공하는 포토스튜디오입니다.,,0
304829074,스튜디오 투투비,studio,서울 성북구 보문동7가 22-5,010-4667-8617,http://place.map.kakao.com/304829074,37.5807020752375,127.022165694217,"문화,예술 > 사진 > 사진관,포토스튜디오 > 대여사진관",{},성북구,100,300,사진관 전문 스튜디오로 다양한 스타일의 웨딩 사진 촬영 가능,,0
2121015787,꼬모애,studio,서울 종로구 소격동 113,010-3773-1643,http://place.map.kakao.com/2121015787,37.58019730345264,126.9818500428347,"문화,예술 > 사진 > 사진관,포토스튜디오","{""모던"",""클래식"",""로맨틱""}",종로구,100,300,꼬모애는 다양한 스타일의 웨딩 사진 촬영을 제공하는 포토스튜디오입니다.,,0
609400796,니콜라스튜디오,studio,서울 중구 을지로4가 315-1,0507-1495-2053,http://place.map.kakao.com/609400796,37.56614667423772,126.99496080151296,"문화,예술 > 사진 > 사진관,포토스튜디오","{""모던"",""내추럴"",""클래식""}",중구,100,300,니콜라스튜디오는 다양한 스타일의 결혼사진을 전문으로 하는 포토스튜디오입니다.,,0
11953123,레드732,studio,서울 성북구 안암동5가 104-6,,http://place.map.kakao.com/11953123,37.58370898771193,127.02909654478825,"문화,예술 > 사진 > 사진관,포토스튜디오","{""모던"",""클래식"",""로맨틱""}",성북구,100,300,레드732는 모던하고 클래식한 스타일의 웨딩 사진을 전문으로 하는 포토스튜디오입니다.,,0
1111472088,앨리스작업실,studio,서울 성북구 안암동1가 19,,http://place.map.kakao.com/1111472088,37.58930876695218,127.01988903496178,"문화,예술 > 사진 > 사진관,포토스튜디오","{""모던"",""내추럴"",""클래식""}",성북구,100,300,앨리스작업실은 다양한 스타일의 사진 촬영을 전문으로 하는 포토스튜디오입니다.,,0
1191116895,스튜디오이슬,studio,서울 양천구 신정동 1007-3,010-7581-8519,http://place.map.kakao.com/1191116895,37.5231131676508,126.864635256944,"문화,예술 > 사진 > 사진관,포토스튜디오","{""모던"",""내추럴"",""클래식"",""로맨틱""}",양천구,100,300,스튜디오이슬은 다양한 스타일의 웨딩 사진을 전문으로 하는 포토스튜디오입니다.,,0
21134290,한씨네사진실,studio,서울 강서구 공항동 53-26,02-2662-1641,http://place.map.kakao.com/21134290,37.56043747714737,126.81001235718624,"문화,예술 > 사진 > 사진관,포토스튜디오","{""로맨틱"",""내추럴""}",강서구,100,300,아름다운 순간을 특별하게 담아주는 사진 전문 스튜디오,,0
1610718503,우아한사진관 서울점,studio,서울 양천구 신정동 978-1,010-6648-6252,http://place.map.kakao.com/1610718503,37.5220190884924,126.856772939287,"문화,예술 > 사진 > 사진관,포토스튜디오","{""모던"",""내추럴"",""클래식""}",양천구,100,300,전통과 모던의 조화를 이루는 우아한 사진 스튜디오,,0
1802053108,빈티지플랜트 목동 렌탈스튜디오,studio,서울 강서구 화곡동 829-1,0503-7150-4211,http://place.map.kakao.com/1802053108,37.5340744540646,126.85824221692,"문화,예술 > 사진 > 사진관,포토스튜디오","{""빈티지""}",강서구,100,300,빈티지 감성을 강조한 목동의 렌탈 스튜디오,,0
150944850,무무스튜디오 서울점,studio,서울 영등포구 문래동6가 33,,http://place.map.kakao.com/150944850,37.52132267824808,126.88576510523185,"문화,예술 > 사진 > 사진관,포토스튜디오","{""모던"",""로맨틱""}",영등포구,100,300,현대적 감각의 웨딩 사진을 제공하는 포토 스튜디오,,0
385491553,앙두앙,studio,서울 양천구 신정동 743-3,0507-1343-1201,http://place.map.kakao.com/385491553,37.50847737933342,126.84153792238999,"문화,예술 > 사진 > 사진관,포토스튜디오 > 대여사진관","{""모던"",""로맨틱""}",양천구,100,300,앙두앙은 감각적인 사진 촬영을 제공하는 대여 사진관입니다.,,0
2026115433,아가베스튜디오,studio,서울 강서구 마곡동 800-15,010-2017-8489,http://place.map.kakao.com/2026115433,37.557956009071,126.830653089934,"문화,예술 > 사진 > 사진관,포토스튜디오","{""모던"",""내추럴"",""로맨틱""}",강서구,100,300,아가베스튜디오는 현대적이고 자연스러운 스타일을 강조하는 포토스튜디오입니다.,,0
16086184,고운빛스튜디오,studio,서울 강서구 화곡동 71-5,070-7645-6672,http://place.map.kakao.com/16086184,37.547702577178754,126.8464034786363,"문화,예술 > 사진 > 사진관,포토스튜디오",{},강서구,100,300,고운빛스튜디오는 다양한 스타일의 웨딩 사진을 제공하는 포토스튜디오입니다.,,0
800909993,플레저인 렌탈스튜디오,studio,서울 강서구 마곡동 800-15,010-9733-3050,http://place.map.kakao.com/800909993,37.5579650319901,126.830662123677,"문화,예술 > 사진 > 사진관,포토스튜디오","{""모던"",""내추럴""}",강서구,100,300,플레저인 렌탈스튜디오는 다양한 스타일의 전문 사진 촬영 서비스를 제공합니다.,,0
840549389,몽블,studio,서울 양천구 신정동 296-118,02-2692-4486,http://place.map.kakao.com/840549389,37.5201482221445,126.873814640991,"서비스,산업 > 전문대행 > 공간대여",{},양천구,200,1000,전문 대행 서비스를 제공하는 공간 대여업체,,0
1440789107,훈스튜디오,studio,서울 관악구 봉천동 702-91,0502-5550-4040,http://place.map.kakao.com/1440789107,37.49050381648527,126.92662431026909,"문화,예술 > 사진 > 사진관,포토스튜디오","{""모던"",""내추럴""}",관악구,100,300,훈스튜디오는 모던하고 내추럴한 스타일의 웨딩 사진을 전문으로 하는 포토스튜디오입니다.,,0
1529037036,포마이티니,studio,서울 영등포구 신길동 233-1,0507-1373-1401,http://place.map.kakao.com/1529037036,37.5068173633011,126.910809424575,"문화,예술 > 사진 > 사진관,포토스튜디오","{""모던"",""로맨틱""}",영등포구,100,300,포토스튜디오 전문 업체로 모던하고 로맨틱한 스타일의 웨딩 촬영을 제공합니다.,,0
619555268,데이지스튜디오,studio,서울 영등포구 신길동 878,,http://place.map.kakao.com/619555268,37.5059052837222,126.921889638456,"문화,예술 > 사진 > 사진관,포토스튜디오","{""모던"",""로맨틱""}",영등포구,100,300,자연광을 활용한 아름다운 촬영을 제공하는 사진관.,,0
291033091,나루스튜디오,studio,서울 영등포구 신길동 226-63,010-2416-3326,http://place.map.kakao.com/291033091,37.5092533273767,126.910343932781,"문화,예술 > 사진 > 사진관,포토스튜디오","{""모던"",""내추럴"",""클래식"",""로맨틱""}",영등포구,100,300,나루스튜디오는 다양한 스타일의 웨딩 사진을 전문으로 하는 포토스튜디오입니다.,,0
1855788511,스튜디오레,studio,서울 구로구 구로동 570-142,0507-1343-5486,http://place.map.kakao.com/1855788511,37.50309971629818,126.8855994841753,"문화,예술 > 사진 > 사진관,포토스튜디오","{""모던"",""내추럴"",""클래식""}",구로구,100,300,다양한 스타일의 웨딩 촬영을 제공하는 포토스튜디오,,0
478235512,프레임그라운드,studio,서울 영등포구 문래동2가 46-8,010-6436-8228,http://place.map.kakao.com/478235512,37.5137718262932,126.892984006145,"문화,예술 > 사진 > 사진관,포토스튜디오","{""모던"",""내추럴"",""클래식""}",영등포구,100,300,프레임그라운드는 다양한 스타일의 웨딩 사진을 제공하는 포토스튜디오입니다.,,0
1326807331,싼타사진관,studio,서울 영등포구 영등포동5가 41-26,0507-1438-6545,http://place.map.kakao.com/1326807331,37.5205063630964,126.906220801256,"문화,예술 > 사진 > 사진관,포토스튜디오","{""모던"",""내추럴"",""클래식""}",영등포구,100,300,영화 같은 순간을 담아내는 전문 사진관,,0
1933385787,사진점방,studio,서울 영등포구 문래동2가 28,0502-5552-7284,http://place.map.kakao.com/1933385787,37.5119069147557,126.893167640906,"문화,예술 > 사진 > 사진관,포토스튜디오","{""모던"",""내추럴"",""클래식""}",영등포구,100,300,전문적인 포토그래피 서비스를 제공하는 감각적인 포토스튜디오,,0
198433659,다이렉트웨딩,studio,서울 마포구 도화동 555,02-711-7550,http://place.map.kakao.com/198433659,37.539981809154,126.94543908205,"가정,생활 > 결혼 > 웨딩컨설팅","{""모던"",""로맨틱""}",마포구,,,다양한 웨딩 컨설팅 서비스를 제공하는 전문 업체,,0
1475280935,원앤온리메이크업헤어,studio,서울 마포구 서교동 490,02-336-9998,http://place.map.kakao.com/1475280935,37.55124767003887,126.91339895534577,"가정,생활 > 미용 > 메이크업","{""내추럴"",""로맨틱""}",마포구,20,80,개성을 살린 자연스러운 메이크업과 헤어 스타일링을 제공하는 업체,,0
505065947,체리쉬웨딩,studio,서울 송파구 잠실동 223-21,070-7766-0625,http://place.map.kakao.com/505065947,37.50718199350981,127.08081026794929,"가정,생활 > 결혼 > 웨딩컨설팅","{""모던"",""로맨틱""}",송파구,100,500,전문적인 웨딩컨설팅 서비스를 제공하는 업체입니다.,,0
321961266,르브아스튜디오,studio,서울 송파구 삼전동 111-7,0507-1447-2131,http://place.map.kakao.com/321961266,37.50639057212815,127.09573285767733,"문화,예술 > 사진 > 사진관,포토스튜디오","{""모던"",""로맨틱""}",송파구,100,300,르브아스튜디오는 현대적이고 로맨틱한 웨딩 촬영을 전문으로 하는 포토스튜디오입니다.,,0
104640929,준스튜디오,studio,서울 종로구 필운동 211,0502-5553-3482,http://place.map.kakao.com/104640929,37.5762323149646,126.970001858244,"가정,생활 > 패션 > 의류대여서비스 > 한복대여","{""전통"",""로맨틱""}",종로구,50,200,한복 대여 전문 업체로 전통적인 아름다움을 제공합니다.,,0
1931578298,메리포레스트,studio,서울 관악구 신림동 521-12,0507-1410-7485,http://place.map.kakao.com/1931578298,37.4845098621606,126.912710587825,"가정,생활 > 꽃집,꽃배달","{""내추럴"",""로맨틱""}",관악구,20,80,꽃집 및 꽃배달 서비스를 제공하는 업체입니다.,,0
25539967,마리에드오늘,studio,서울 강남구 청담동 5-9,02-517-7644,http://place.map.kakao.com/25539967,37.52354688812537,127.04548196699656,"가정,생활 > 결혼 > 웨딩드레스","{""모던"",""로맨틱""}",강남구,50,200,세련되고 로맨틱한 웨딩드레스를 제공하는 전문 업체.,,0
1150634473,앤드류권 스튜디오,studio,서울 강남구 논현동 27-2,02-548-7217,http://place.map.kakao.com/1150634473,37.51630864331378,127.02634204096361,"문화,예술 > 사진 > 사진관,포토스튜디오","{""모던"",""로맨틱""}",강남구,100,300,"앤드류권 스튜디오는 다양한 스타일의 사진 촬영 서비스를 제공하며, 모던하고 로맨틱한 분위기를 잘 표현하는 스튜디오입니다.",,0
954924197,희일스튜디오,studio,서울 강남구 역삼동 675-1,010-2349-1440,http://place.map.kakao.com/954924197,37.505127572194944,127.04080552495789,"문화,예술 > 사진 > 사진관,포토스튜디오","{""모던"",""내추럴"",""클래식"",""로맨틱""}",강남구,100,300,희일스튜디오는 다양한 스타일을 제공하는 포토스튜디오입니다.,,0
2111941414,케이와이포토웍스,studio,서울 강남구 역삼동 649-8,010-8176-0045,http://place.map.kakao.com/2111941414,37.4994572012018,127.029906333542,"가정,생활 > 결혼 > 웨딩스튜디오","{""모던"",""클래식"",""로맨틱""}",강남구,100,300,다양한 스타일의 웨딩 사진을 제공하는 전문 웨딩 스튜디오,,0
1286118620,시환코퍼레이션,studio,서울 강남구 논현동 59-6,0502-5550-2675,http://place.map.kakao.com/1286118620,37.5194867205711,127.029162084147,"가정,생활 > 결혼 > 웨딩스튜디오","{""모던"",""로맨틱""}",강남구,100,300,시환코퍼레이션은 스타일리시하고 현대적인 웨딩 촬영을 전문으로 하는 웨딩 스튜디오입니다.,,0
26423739,황정아웨딩드레스 앤 부티크샵,dress,서울 강남구 청담동 84-7,02-541-8811,http://place.map.kakao.com/26423739,37.52601116050321,127.0404424407311,"가정,생활 > 결혼 > 웨딩드레스","{""모던"",""클래식"",""럭셔리""}",강남구,50,200,다양한 스타일의 웨딩드레스를 제공하는 전문 부티크샵,,0
10665200,이명순웨딩드레스,dress,서울 강남구 청담동 90-19,02-540-5551,http://place.map.kakao.com/10665200,37.52463182404509,127.0427234633792,"가정,생활 > 결혼 > 웨딩드레스","{""모던"",""로맨틱""}",강남구,50,200,세련된 디자인과 품격 있는 스타일의 웨딩드레스를 제공합니다.,,0
1713506307,현대웨딩드레스,dress,서울 강남구 삼성동 121-38,02-547-8555,http://place.map.kakao.com/1713506307,37.51032772700563,127.0532408782443,"가정,생활 > 세탁소","{""모던"",""클래식"",""럭셔리""}",강남구,50,200,현대적인 감각의 웨딩드레스를 전문으로 하는 세탁소,,0
4971408,이명순웨딩드레스,dress,서울 강남구 청담동 12-15,,http://place.map.kakao.com/4971408,37.5232201588236,127.046929764191,"가정,생활 > 결혼 > 웨딩드레스","{""모던"",""로맨틱"",""클래식""}",강남구,50,200,이명순웨딩드레스는 다양한 스타일의 웨딩드레스를 전문으로 제공하는 업체입니다.,,0
8350073,리젠시웨딩드레스,dress,서울 강남구 대치동 909-2,02-566-3381,http://place.map.kakao.com/8350073,37.5010537124454,127.053170961574,"가정,생활 > 결혼 > 웨딩드레스","{""모던"",""클래식"",""로맨틱""}",강남구,50,200,고급스러운 웨딩드레스를 전문으로 하는 업체,,0
1617676855,리아나웨딩드레스,dress,서울 강남구 논현동 33-8,02-644-3766,http://place.map.kakao.com/1617676855,37.5167360442925,127.028808095336,"가정,생활 > 결혼 > 웨딩드레스","{""모던"",""클래식"",""럭셔리""}",강남구,50,200,고급스럽고 다양한 스타일의 웨딩드레스를 제공하는 전문 업체.,,0
7864913,라푼젤웨딩드레스,dress,서울 강남구 신사동 557-34,02-3443-4882,http://place.map.kakao.com/7864913,37.5208741364382,127.025845913008,"가정,생활 > 결혼 > 웨딩드레스","{""모던"",""로맨틱""}",강남구,50,200,세련된 디자인의 다양한 웨딩드레스를 제공하는 전문 업체,,0
8103270,크리스찬웨딩드레스,dress,서울 광진구 자양동 833-3,,http://place.map.kakao.com/8103270,37.5391538540124,127.063449277526,"가정,생활 > 결혼 > 웨딩드레스","{""모던"",""클래식"",""로맨틱""}",광진구,50,200,다양한 스타일의 웨딩드레스를 제공하는 전문 업체,,0
320394854,제이필리아 웨딩드레스,dress,서울 강남구 청담동 40-3,010-2548-7058,http://place.map.kakao.com/320394854,37.5189489372297,127.04092051247,"가정,생활 > 결혼 > 웨딩드레스","{""모던"",""클래식"",""럭셔리""}",강남구,50,200,제이필리아 웨딩드레스는 고급스러운 웨딩드레스를 전문으로 제공하는 업체입니다.,,0
9840960,보누루 웨딩드레스스쿨,dress,서울 강남구 신사동 592-4,,http://place.map.kakao.com/9840960,37.5222394290653,127.028570390061,"교육,학문 > 학원",{},강남구,50,200,웨딩드레스를 전문으로 교육하는 학원,,0
7896149,베르소웨딩드레스,dress,서울 강남구 청담동 108,,http://place.map.kakao.com/7896149,37.5276084730263,127.052330006409,"가정,생활 > 결혼 > 웨딩드레스","{""모던"",""클래식"",""럭셔리""}",강남구,50,200,세련된 디자인의 웨딩드레스를 제공하는 프리미엄 업체,,0
1750484246,유엠웨딩드레스아카데미,dress,서울 강남구 청담동 63-18,02-540-5006,http://place.map.kakao.com/1750484246,37.5205457750569,127.049641852636,"교육,학문 > 직업전문교육",{},강남구,,,전문적인 웨딩드레스 교육을 제공하는 아카데미,,0
25548535,드레스가든,dress,서울 강남구 청담동 71-8,02-512-1000,http://place.map.kakao.com/25548535,37.52070241959142,127.05597785505931,"가정,생활 > 결혼 > 예식장","{""모던"",""클래식"",""럭셔리""}",강남구,200,1000,세련된 디자인과 고급스러운 분위기를 갖춘 예식장,,0
26485884,보네르웨딩,dress,서울 강남구 논현동 111-4,02-6498-6006,http://place.map.kakao.com/26485884,37.5187402570632,127.039889894535,"가정,생활 > 결혼 > 웨딩드레스","{""모던"",""클래식""}",강남구,50,200,보네르웨딩은 다양한 스타일의 웨딩드레스를 제공하는 전문 업체입니다.,,0
410058784,베리굿웨딩 청담점,dress,서울 강남구 청담동 22-4,02-515-5088,http://place.map.kakao.com/410058784,37.5224899319399,127.040766335818,"가정,생활 > 결혼 > 웨딩컨설팅","{""모던"",""럭셔리""}",강남구,200,1000,베리굿웨딩 청담점은 고급스러운 웨딩컨설팅 전문 업체입니다.,,0
7902052,베리굿웨딩 논현본점,dress,서울 강남구 논현동 36-12,02-543-5066,http://place.map.kakao.com/7902052,37.51494123907019,127.02883229009659,"가정,생활 > 결혼 > 웨딩컨설팅",{},강남구,200,1000,"신랑, 신부의 완벽한 결혼식을 위한 종합 웨딩 컨설팅 서비스 제공",,0
1729392508,S웨딩,dress,서울 강남구 청담동 83-15,02-512-1210,http://place.map.kakao.com/1729392508,37.526332436915816,127.04154110018699,"가정,생활 > 결혼 > 웨딩컨설팅","{""모던"",""클래식"",""럭셔리""}",강남구,100,300,프리미엄 웨딩 컨설팅 서비스 제공.,,0
10915642,웨딩라운지,dress,서울 서초구 잠원동 14-16,0503-7152-9333,http://place.map.kakao.com/10915642,37.51583718281557,127.01799636023863,"가정,생활 > 결혼 > 웨딩컨설팅","{""모던"",""로맨틱""}",서초구,70,500,"웨딩컨설팅 전문 업체로, 다양한 스타일의 웨딩을 제안합니다.",,0
11103010,에바네쌍띠웨딩,dress,서울 강남구 청담동 30-1,0507-1337-4541,http://place.map.kakao.com/11103010,37.521189720139596,127.04812192516515,"가정,생활 > 결혼 > 웨딩드레스","{""모던"",""내추럴"",""클래식"",""럭셔리""}",강남구,50,200,다양한 스타일의 웨딩드레스를 제공하는 전문 웨딩 업체,,0
1580328742,클레어더웨딩,dress,서울 강남구 청담동 120-2,02-546-6305,http://place.map.kakao.com/1580328742,37.5246828760706,127.048197701256,"가정,생활 > 결혼 > 웨딩컨설팅","{""모던"",""럭셔리"",""로맨틱""}",강남구,200,1000,고급스러운 웨딩 컨설팅 서비스 제공,,0
1677350815,아워스페셜데이,dress,서울 서초구 양재동 393-5,0507-1346-5372,http://place.map.kakao.com/1677350815,37.47251767030115,127.04952189391037,"가정,생활 > 결혼 > 웨딩드레스","{""모던"",""클래식"",""로맨틱""}",서초구,50,200,아름다움과 우아함을 동시에 갖춘 다양한 웨딩드레스를 제공합니다.,,0
18118695,브라이드손윤희,dress,서울 강남구 논현동 101-3,02-515-4520,http://place.map.kakao.com/18118695,37.52074613404059,127.03916020123356,"가정,생활 > 결혼 > 웨딩드레스","{""모던"",""클래식"",""로맨틱""}",강남구,50,200,브라이드손윤희는 다양한 스타일의 웨딩드레스를 제공하는 전문 웨딩 드레스 업체입니다.,,0
1595006139,터치바이해리 청담점,dress,서울 강남구 청담동 83,02-516-2227,http://place.map.kakao.com/1595006139,37.526786621995164,127.04131282936366,"가정,생활 > 결혼 > 웨딩드레스",{},강남구,50,200,프리미엄 웨딩드레스를 제공하는 청담동의 유명 업체입니다.,,0
